"","CODIGO_ENTIDAD","NOMBRE","TIPO_GESTION","ESTADO_LICENCIAMIENTO","PERIODO_LICENCIAMIENTO","CODIGO_FILIAL","NOMBRE_FILIAL","DEPARTAMENTO_FILIAL","PROVINCIA_FILIAL","CODIGO_LOCAL","DEPARTAMENTO_LOCAL","PROVINCIA_LOCAL","DISTRITO_LOCAL","LATITUD_UBICACION","LONGITUD_UBICACION","TIPO_AUTORIZACION_LOCAL","DENOMINACION_PROGRAMA","TIPO_NIVEL_ACADEMICO","NIVEL_ACADEMICO","CODIGO_CLASE_PROGRAMA_N2","NOMBRE_CLASE_PROGRAMA_N2","TIPO_AUTORIZACION_PROGRAMA","TIPO_AUTORIZACION_PROGRAMA_LOCAL"
"1","065","UNIVERSIDAD TECNOLÓGICA DEL PERÚ S.A.C.","PRIVADO","LICENCIA OTORGADA",6,"S","UTP-LIMA","LIMA","LIMA","SL09","LIMA","LIMA","SAN JUAN DE LURIGANCHO",-11.98329601,-77.00953028,"AUTORIZADO POR LIC.","ADMINISTRACIÓN DE EMPRESAS","PREGRADO","CARRERA PROFESIONAL",41,"ADMINISTRACIÓN Y COMERCIO","RECONOCIDO POR LIC.","RECONOCIDO POR LIC."
"2","008","PONTIFICIA UNIVERSIDAD CATÓLICA DEL PERÚ","PRIVADO","LICENCIA OTORGADA",10,"S","PUCP-LIMA","LIMA","LIMA","SL01","LIMA","LIMA","SAN MIGUEL",-12.0693438,-77.080122,"AUTORIZADO POR LIC.","DERECHO DE LA EMPRESA CON MENCIÓN EN RESPONSABILIDAD SOCIAL","POSGRADO","MAESTRÍA",42,"DERECHO","RECONOCIDO POR LIC.","RECONOCIDO POR LIC."
"3","065","UNIVERSIDAD TECNOLÓGICA DEL PERÚ S.A.C.","PRIVADO","LICENCIA OTORGADA",6,"S","UTP-LIMA","LIMA","LIMA","SL02","LIMA","LIMA","LIMA",-12.06576795,-77.03693393,"AUTORIZADO POR LIC.","INGENIERÍA MARÍTIMA CON MENCIÓN PUENTE","PREGRADO","CARRERA PROFESIONAL",0,"NINGUNO","RECONOCIDO POR LIC.","RECONOCIDO POR LIC."
"4","052A","UNIVERSIDAD CÉSAR VALLEJO S.A.C.","PRIVADO","LICENCIA OTORGADA",6,"F01","UPCV-PIURA","PIURA","PIURA","F01L01","PIURA","PIURA","VEINTISEIS DE OCTUBRE",-5.168798939,-80.65734342,"AUTORIZADO POR LIC.","MAESTRÍA EN ADMINISTRACIÓN DE NEGOCIOS - MBA","POSGRADO","MAESTRÍA",41,"ADMINISTRACIÓN Y COMERCIO","RECONOCIDO POR LIC.","RECONOCIDO POR LIC."
"5","065","UNIVERSIDAD TECNOLÓGICA DEL PERÚ S.A.C.","PRIVADO","LICENCIA OTORGADA",6,"F02","UTP-LAMBAYEQUE","LAMBAYEQUE","CHICLAYO","F02L01","LAMBAYEQUE","CHICLAYO","CHICLAYO",-6.7929064,-79.8644851,"AUTORIZADO POR LIC.","INGENIERÍA DE SISTEMAS E INFORMÁTICA","PREGRADO","CARRERA PROFESIONAL",61,"INFORMÁTICA","RECONOCIDO POR LIC.","RECONOCIDO POR LIC."
"6","014","UNIVERSIDAD PERUANA CAYETANO HEREDIA","PRIVADO","LICENCIA OTORGADA",10,"S","UPCH-LIMA","LIMA","LIMA","SL04","LIMA","LIMA","MIRAFLORES",-12.13402606,-77.02627908,"AUTORIZADO POR LIC.","PROGRAMA DE SEGUNDA ESPECIALIDAD PROFESIONAL EN GERIATRÍA","POSGRADO","SEGUNDA ESPECIALIDAD",92,"BIENESTAR","RECONOCIDO POR LIC.","RECONOCIDO POR LIC."
"7","054","UNIVERSIDAD PERUANA DE CIENCIAS APLICADAS S.A.C.","PRIVADO","LICENCIA OTORGADA",6,"S","UPC-LIMA","LIMA","LIMA","SL10","LIMA","LIMA","CHORRILLOS",-12.1964766,-77.0055369,"AUTORIZADO POR LIC.","MAESTRÍA EN TRADUCCIÓN","POSGRADO","MAESTRÍA",23,"IDIOMAS","RECONOCIDO POR LIC.","RECONOCIDO POR LIC."
"8","041","UNIVERSIDAD NACIONAL DE TUMBES","PÚBLICO","LICENCIA OTORGADA",6,"S","UNT-TUMBES","TUMBES","TUMBES","SL01","TUMBES","TUMBES","TUMBES",-3.585267,-80.443305,"AUTORIZADO POR LIC.","MAESTRÍA EN DERECHO CON MENCIÓN EN DERECHO CONSTITUCIONAL Y ADMINISTRATIVO","POSGRADO","MAESTRÍA",42,"DERECHO","RECONOCIDO POR LIC.","RECONOCIDO POR LIC."
"9","014","UNIVERSIDAD PERUANA CAYETANO HEREDIA","PRIVADO","LICENCIA OTORGADA",10,"S","UPCH-LIMA","LIMA","LIMA","SL04","LIMA","LIMA","MIRAFLORES",-12.13402606,-77.02627908,"AUTORIZADO POR LIC.","PROGRAMA DE SEGUNDA ESPECIALIDAD PROFESIONAL EN ODONTOLOGÍA FORENSE","POSGRADO","SEGUNDA ESPECIALIDAD",91,"SALUD","RECONOCIDO POR LIC.","RECONOCIDO POR LIC."
"10","003","UNIVERSIDAD NACIONAL DE SAN ANTONIO ABAD DEL CUSCO","PÚBLICO","LICENCIA OTORGADA",8,"F06","UNSAAC-APURÍMAC","APURÍMAC","ANDAHUAYLAS","F06L01","APURÍMAC","ANDAHUAYLAS","ANDAHUAYLAS",-13.6616515,-73.3767641,"AUTORIZADO POR LIC.","MAESTRÍA EN CONTABILIDAD MENCIÓN TRIBUTACIÓN","POSGRADO","MAESTRÍA",0,"NINGUNO","RECONOCIDO POR LIC.","RECONOCIDO POR LIC."
"11","010","UNIVERSIDAD NACIONAL DEL CENTRO DEL PERÚ","PÚBLICO","LICENCIA OTORGADA",6,"S","UNCP-JUNÍN","JUNÍN","HUANCAYO","SL01","JUNÍN","HUANCAYO","EL TAMBO",-12.0330464,-75.237332,"AUTORIZADO POR LIC.","MAESTRÍA EN ADMINISTRACIÓN MENCIÓN MARKETING Y GESTIÓN DE NEGOCIOS INTERNACIONALES","POSGRADO","MAESTRÍA",0,"NINGUNO","RECONOCIDO POR LIC.","RECONOCIDO POR LIC."
"12","049","UNIVERSIDAD MARCELINO CHAMPAGNAT","PRIVADO","LICENCIA OTORGADA",6,"S","UMCH-LIMA","LIMA","LIMA","SL01","LIMA","LIMA","SANTIAGO DE SURCO",-12.1363972,-77.0057685,"AUTORIZADO POR LIC.","COMPLEMENTACIÓN ACADÉMICA","PREGRADO","CARRERA PROFESIONAL",0,"NINGUNO","RECONOCIDO POR LIC.","RECONOCIDO POR LIC."
"13","014","UNIVERSIDAD PERUANA CAYETANO HEREDIA","PRIVADO","LICENCIA OTORGADA",10,"S","UPCH-LIMA","LIMA","LIMA","SL03","LIMA","LIMA","SAN ISIDRO",-12.091066,-77.052041,"AUTORIZADO POR LIC.","PSICOLOGÍA DE LA SALUD","POSGRADO","SEGUNDA ESPECIALIDAD",0,"NINGUNO","RECONOCIDO POR LIC.","RECONOCIDO POR LIC."
"14","042","UNIVERSIDAD NACIONAL DEL SANTA","PÚBLICO","LICENCIA OTORGADA",6,"S","UNS-ÁNCASH","ÁNCASH","SANTA","SL01","ÁNCASH","SANTA","NUEVO CHIMBOTE",-9.1195533,-78.5133704,"DECLARADO","SEGUNDA ESPECIALIDAD PROFESIONAL EN ENFERMERÍA MENCIÓN CUIDADO INTEGRAL INFANTIL: CRECIMIENTO Y DESARROLLO","POSGRADO","SEGUNDA ESPECIALIDAD",0,"NINGUNO","RECONOCIDO POR LIC.","RECONOCIDO POR LIC."
"15","012","UNIVERSIDAD NACIONAL DEL ALTIPLANO","PÚBLICO","LICENCIA OTORGADA",6,"S","UNA-PUNO","PUNO","PUNO","SL01","PUNO","PUNO","PUNO",-15.8243805,-70.0162544,"AUTORIZADO POR LIC.","DOCTORADO EN CIENCIA, TECNOLOGÍA Y MEDIO AMBIENTE","POSGRADO","DOCTORADO",52,"MEDIO AMBIENTE","RECONOCIDO POR LIC.","RECONOCIDO POR LIC."
"16","046","UNIVERSIDAD PRIVADA ANTENOR ORREGO","PRIVADO","LICENCIA OTORGADA",6,"S","UPAO-LA LIBERTAD","LA LIBERTAD","TRUJILLO","SL01","LA LIBERTAD","TRUJILLO","TRUJILLO",-8.1270487,-79.0314756,"AUTORIZADO POR LIC.","PSIQUIATRÍA","POSGRADO","SEGUNDA ESPECIALIDAD",91,"SALUD","RECONOCIDO POR LIC.","RECONOCIDO POR LIC."
"17","068","UNIVERSIDAD CIENTÍFICA DEL SUR S.A.C.","PRIVADO","LICENCIA OTORGADA",6,"S","UCS-LIMA","LIMA","LIMA","SL04","LIMA","LIMA","MIRAFLORES",-12.1194134,-77.0261271,"AUTORIZADO POR LIC.","SEGUNDA ESPECIALIDAD EN RADIOLOGÍA","POSGRADO","SEGUNDA ESPECIALIDAD",91,"SALUD","RECONOCIDO POR LIC.","RECONOCIDO POR LIC."
"18","046","UNIVERSIDAD PRIVADA ANTENOR ORREGO","PRIVADO","LICENCIA OTORGADA",6,"F01","UPAO-PIURA","PIURA","PIURA","F01L01","PIURA","PIURA","PIURA",-5.1782884,-80.6548882,"AUTORIZADO POR LIC.","INGENIERÍA CIVIL","PREGRADO","CARRERA PROFESIONAL",73,"ARQUITECTURA Y CONSTRUCCIÓN","RECONOCIDO POR LIC.","RECONOCIDO POR LIC."
"19","071","UNIVERSIDAD CATÓLICA SEDES SAPIENTIAE","PRIVADO","LICENCIA OTORGADA",6,"F02","UCSS-UCAYALI","UCAYALI","ATALAYA","F02L01","UCAYALI","ATALAYA","RAYMONDI",-10.7299969,-73.7556001,"AUTORIZADO POR LIC.","INGENIERÍA AGRARIA CON MENCIÓN FORESTAL","PREGRADO","CARRERA PROFESIONAL",82,"SILVICULTURA","RECONOCIDO POR LIC.","RECONOCIDO POR LIC."
"20","034","UNIVERSIDAD NACIONAL DE SAN MARTÍN","PÚBLICO","LICENCIA OTORGADA",6,"S","UNSM-SAN MARTÍN","SAN MARTÍN","SAN MARTÍN","SL02","SAN MARTÍN","SAN MARTÍN","MORALES",-6.484769492,-76.37760713,"AUTORIZADO POR LIC.","DOCTORADO EN CIENCIAS DE LA EDUCACIÓN","POSGRADO","DOCTORADO",19,"OTROS PROGRAMAS EN EDUCACIÓN","RECONOCIDO POR LIC.","RECONOCIDO POR LIC."
"21","068","UNIVERSIDAD CIENTÍFICA DEL SUR S.A.C.","PRIVADO","LICENCIA OTORGADA",6,"S","UCS-LIMA","LIMA","LIMA","SL01","LIMA","LIMA","VILLA EL SALVADOR",-12.2215281,-76.9766998,"AUTORIZADO POR LIC.","ENFERMERÍA","PREGRADO","CARRERA PROFESIONAL",91,"SALUD","RECONOCIDO POR LIC.","RECONOCIDO POR LIC."
"22","008","PONTIFICIA UNIVERSIDAD CATÓLICA DEL PERÚ","PRIVADO","LICENCIA OTORGADA",10,"S","PUCP-LIMA","LIMA","LIMA","SL01","LIMA","LIMA","SAN MIGUEL",-12.0693438,-77.080122,"AUTORIZADO POR LIC.","DOCTORADO EN HISTORIA","POSGRADO","DOCTORADO",22,"HUMANIDADES","RECONOCIDO POR LIC.","RECONOCIDO POR LIC."
"23","014","UNIVERSIDAD PERUANA CAYETANO HEREDIA","PRIVADO","LICENCIA OTORGADA",10,"S","UPCH-LIMA","LIMA","LIMA","SL01","LIMA","LIMA","SAN MARTÍN DE PORRES",-12.0239471,-77.0564991,"AUTORIZADO POR LIC.","PROGRAMA DE SEGUNDA ESPECIALIDAD PROFESIONAL EN PSIQUIATRÍA COMUNITARIA Y SOCIAL","POSGRADO","SEGUNDA ESPECIALIDAD",2,"SERVICIOS DE HIGIENE Y SALUD OCUPACIONAL","RECONOCIDO POR LIC.","RECONOCIDO POR LIC."
"24","012","UNIVERSIDAD NACIONAL DEL ALTIPLANO","PÚBLICO","LICENCIA OTORGADA",6,"S","UNA-PUNO","PUNO","PUNO","SL01","PUNO","PUNO","PUNO",-15.8243805,-70.0162544,"AUTORIZADO POR LIC.","MAESTRÍA EN EDUCACIÓN MENCIÓN EN EDUCACIÓN INTERCULTURAL BILINGÜE","POSGRADO","MAESTRÍA",19,"OTROS PROGRAMAS EN EDUCACIÓN","RECONOCIDO POR LIC.","RECONOCIDO POR LIC."
"25","007","UNIVERSIDAD NACIONAL AGRARIA LA MOLINA","PÚBLICO","LICENCIA OTORGADA",8,"S","UNALM-LIMA","LIMA","LIMA","SL01","LIMA","LIMA","LA MOLINA",-12.0817493,-76.9431895,"AUTORIZADO POR LIC.","INGENIERÍA EN GESTIÓN EMPRESARIAL","PREGRADO","CARRERA PROFESIONAL",41,"ADMINISTRACIÓN Y COMERCIO","RECONOCIDO POR LIC.","RECONOCIDO POR LIC."
"26","015","UNIVERSIDAD CATÓLICA DE SANTA MARÍA","PRIVADO","LICENCIA OTORGADA",6,"S","UCSM-AREQUIPA","AREQUIPA","AREQUIPA","SL02","AREQUIPA","AREQUIPA","AREQUIPA",-16.4048982,-71.5498378,"AUTORIZADO POR LIC.","MAESTRÍA EN SALUD OCUPACIONAL Y DEL MEDIO AMBIENTE","POSGRADO","MAESTRÍA",2,"SERVICIOS DE HIGIENE Y SALUD OCUPACIONAL","RECONOCIDO POR LIC.","RECONOCIDO POR LIC."
"27","005","UNIVERSIDAD NACIONAL DE SAN AGUSTÍN DE AREQUIPA","PÚBLICO","LICENCIA OTORGADA",10,"S","UNSA-AREQUIPA","AREQUIPA","AREQUIPA","SL02","AREQUIPA","AREQUIPA","AREQUIPA",-16.4086078,-71.5285764,"AUTORIZADO POR LIC.","CIENCIAS DE LA COMUNICACIÓN CON ESPECIALIDAD EN PERIODISMO","PREGRADO","CARRERA PROFESIONAL",32,"PERIODISMO E INFORMACIÓN","RECONOCIDO POR LIC.","RECONOCIDO POR LIC."
"28","013","UNIVERSIDAD NACIONAL DE PIURA","PÚBLICO","LICENCIA OTORGADA",6,"S","UNP-PIURA","PIURA","PIURA","SL01","PIURA","PIURA","CASTILLA",-5.179311,-80.6188325,"AUTORIZADO POR LIC.","MAESTRÍA EN SALUD PÚBLICA CON MENCIÓN EN EDUCACIÓN MÉDICA","POSGRADO","MAESTRÍA",2,"SERVICIOS DE HIGIENE Y SALUD OCUPACIONAL","RECONOCIDO POR LIC.","RECONOCIDO POR LIC."
"29","015","UNIVERSIDAD CATÓLICA DE SANTA MARÍA","PRIVADO","LICENCIA OTORGADA",6,"S","UCSM-AREQUIPA","AREQUIPA","AREQUIPA","SL01","AREQUIPA","AREQUIPA","AREQUIPA",-16.4061786,-71.5476298,"AUTORIZADO POR LIC.","ENFERMERÍA EN PEDIATRÍA","POSGRADO","SEGUNDA ESPECIALIDAD",92,"BIENESTAR","RECONOCIDO POR LIC.","RECONOCIDO POR LIC."
"30","001","UNIVERSIDAD NACIONAL MAYOR DE SAN MARCOS","PÚBLICO","LICENCIA OTORGADA",10,"S","UNMSM-LIMA","LIMA","LIMA","SL01","LIMA","LIMA","LIMA",-12.0560257,-77.0844226,"AUTORIZADO POR LIC.","CIENCIAS DE LA GESTIÓN ECONÓMICO EMPRESARIAL","POSGRADO","MAESTRÍA",31,"CIENCIAS SOCIALES Y DEL COMPORTAMIENTO","RECONOCIDO POR LIC.","RECONOCIDO POR LIC."
"31","055","UNIVERSIDAD PRIVADA DEL NORTE S.A.C.","PRIVADO","LICENCIA OTORGADA",6,"S","UPN-LA LIBERTAD","LA LIBERTAD","TRUJILLO","SL03","LA LIBERTAD","TRUJILLO","TRUJILLO",-8.0950664,-79.0498645,"AUTORIZADO POR LIC.","INGENIERÍA AMBIENTAL","PREGRADO","CARRERA PROFESIONAL",52,"MEDIO AMBIENTE","RECONOCIDO POR LIC.","RECONOCIDO POR LIC."
"32","014","UNIVERSIDAD PERUANA CAYETANO HEREDIA","PRIVADO","LICENCIA OTORGADA",10,"S","UPCH-LIMA","LIMA","LIMA","SL04","LIMA","LIMA","MIRAFLORES",-12.13402606,-77.02627908,"AUTORIZADO POR LIC.","PSICOLOGÍA ESCOLAR Y PROBLEMAS DE APRENDIZAJE","POSGRADO","SEGUNDA ESPECIALIDAD",0,"NINGUNO","RECONOCIDO POR LIC.","RECONOCIDO POR LIC."
"33","052A","UNIVERSIDAD CÉSAR VALLEJO S.A.C.","PRIVADO","LICENCIA OTORGADA",6,"F07","UPCV-SAN MARTÍN","SAN MARTÍN","MOYOBAMBA","F07L03","SAN MARTÍN","MOYOBAMBA","MOYOBAMBA",-6.032752051,-76.97476265,"AUTORIZADO POR LIC.","DERECHO","PREGRADO","CARRERA PROFESIONAL",42,"DERECHO","RECONOCIDO POR LIC.","RECONOCIDO POR LIC."
"34","061","UNIVERSIDAD PRIVADA NORBERT WIENER S.A.","PRIVADO","LICENCIA OTORGADA",6,"S","UPNW-LIMA","LIMA","LIMA","SL01","LIMA","LIMA","LIMA",-12.0697607,-77.0374712,"AUTORIZADO POR LIC.","SEGUNDA ESPECIALIDAD EN GESTIÓN DE SERVICIOS DE SALUD Y ENFERMERÍA","POSGRADO","SEGUNDA ESPECIALIDAD",41,"ADMINISTRACIÓN Y COMERCIO","RECONOCIDO POR LIC.","RECONOCIDO POR LIC."
"35","001","UNIVERSIDAD NACIONAL MAYOR DE SAN MARCOS","PÚBLICO","LICENCIA OTORGADA",10,"S","UNMSM-LIMA","LIMA","LIMA","SL01","LIMA","LIMA","LIMA",-12.0560257,-77.0844226,"AUTORIZADO POR LIC.","COMPUTACIÓN E INFORMÁTICA","POSGRADO","SEGUNDA ESPECIALIDAD",61,"INFORMÁTICA","RECONOCIDO POR LIC.","RECONOCIDO POR LIC."
"36","006","UNIVERSIDAD NACIONAL DE INGENIERÍA","PÚBLICO","LICENCIA OTORGADA",10,"S","UNI-LIMA","LIMA","LIMA","SL01","LIMA","LIMA","RÍMAC",-12.0220074,-77.0493646,"AUTORIZADO POR LIC.","MAESTRÍA EN CIENCIAS EN INGENIERÍA DE SISTEMAS","POSGRADO","MAESTRÍA",61,"INFORMÁTICA","RECONOCIDO POR LIC.","RECONOCIDO POR LIC."
"37","014","UNIVERSIDAD PERUANA CAYETANO HEREDIA","PRIVADO","LICENCIA OTORGADA",10,"S","UPCH-LIMA","LIMA","LIMA","SL01","LIMA","LIMA","SAN MARTÍN DE PORRES",-12.0239471,-77.0564991,"AUTORIZADO POR LIC.","PROGRAMA DE SEGUNDA ESPECIALIDAD PROFESIONAL EN ENFERMERÍA EN SALUD OCUPACIONAL","POSGRADO","SEGUNDA ESPECIALIDAD",2,"SERVICIOS DE HIGIENE Y SALUD OCUPACIONAL","RECONOCIDO POR LIC.","RECONOCIDO POR LIC."
"38","054","UNIVERSIDAD PERUANA DE CIENCIAS APLICADAS S.A.C.","PRIVADO","LICENCIA OTORGADA",6,"S","UPC-LIMA","LIMA","LIMA","SL07","LIMA","LIMA","SAN MIGUEL",-12.0810086,-77.0707359,"AUTORIZADO POR LIC.","DISEÑO PROFESIONAL DE INTERIORES","PREGRADO","CARRERA PROFESIONAL",21,"ARTE","RECONOCIDO POR LIC.","RECONOCIDO POR LIC."
"39","055","UNIVERSIDAD PRIVADA DEL NORTE S.A.C.","PRIVADO","LICENCIA OTORGADA",6,"F02","UPN-LIMA","LIMA","LIMA","F02L01","LIMA","LIMA","LOS OLIVOS",-11.9646093,-77.0675632,"AUTORIZADO POR LIC.","COMUNICACIÓN AUDIOVISUAL EN MEDIOS DIGITALES","PREGRADO","CARRERA PROFESIONAL",21,"ARTE","RECONOCIDO POR LIC.","RECONOCIDO POR LIC."
"40","019","UNIVERSIDAD DE SAN MARTÍN DE PORRES","PRIVADO","LICENCIA OTORGADA",6,"S","USMP-LIMA","LIMA","LIMA","SL01","LIMA","LIMA","SANTA ANITA",-12.045948,-76.9681914,"AUTORIZADO POR LIC.","NEUROCIRUGÍA","POSGRADO","SEGUNDA ESPECIALIDAD",91,"SALUD","RECONOCIDO POR LIC.","RECONOCIDO POR LIC."
"41","061","UNIVERSIDAD PRIVADA NORBERT WIENER S.A.","PRIVADO","LICENCIA OTORGADA",6,"S","UPNW-LIMA","LIMA","LIMA","SL01","LIMA","LIMA","LIMA",-12.0697607,-77.0374712,"AUTORIZADO POR LIC.","TECNOLOGÍA MÉDICA EN LABORATORIO CLÍNICO Y ANATOMÍA PATOLÓGICA","PREGRADO","CARRERA PROFESIONAL",0,"NINGUNO","RECONOCIDO POR LIC.","RECONOCIDO POR LIC."
"42","065","UNIVERSIDAD TECNOLÓGICA DEL PERÚ S.A.C.","PRIVADO","LICENCIA OTORGADA",6,"F05","UTP-ICA","ICA","ICA","F05L01","ICA","ICA","ICA",-14.07546,-75.7341811,"AUTORIZADO POR LIC.","INGENIERÍA INDUSTRIAL","PREGRADO","CARRERA PROFESIONAL",72,"INDUSTRIA Y PRODUCCIÓN","RECONOCIDO POR LIC.","RECONOCIDO POR LIC."
"43","004","UNIVERSIDAD NACIONAL DE TRUJILLO","PÚBLICO","LICENCIA OTORGADA",8,"S","UNT-LA LIBERTAD","LA LIBERTAD","TRUJILLO","SL01","LA LIBERTAD","TRUJILLO","TRUJILLO",-8.1142716,-79.0383735,"AUTORIZADO POR LIC.","TURISMO","PREGRADO","CARRERA PROFESIONAL",1,"SERVICIOS PERSONALES","RECONOCIDO POR LIC.","RECONOCIDO POR LIC."
"44","027","UNIVERSIDAD NACIONAL DEL CALLAO","PÚBLICO","LICENCIA OTORGADA",6,"S","UNC-CALLAO","CALLAO","PROV. CONST. DEL CALLAO","SL01","CALLAO","PROV. CONST. DEL CALLAO","BELLAVISTA",-12.0612769,-77.1173082,"AUTORIZADO POR LIC.","SEGUNDA ESPECIALIDAD PROFESIONAL EN ENFERMERÍA EN CRECIMIENTO, DESARROLLO DEL NIÑO Y ESTIMULACIÓN DE LA PRIMERA INFANCIA","POSGRADO","SEGUNDA ESPECIALIDAD",92,"BIENESTAR","RECONOCIDO POR LIC.","RECONOCIDO POR LIC."
"45","019","UNIVERSIDAD DE SAN MARTÍN DE PORRES","PRIVADO","LICENCIA OTORGADA",6,"S","USMP-LIMA","LIMA","LIMA","SL01","LIMA","LIMA","SANTA ANITA",-12.045948,-76.9681914,"AUTORIZADO POR LIC.","CIRUGÍA PEDIÁTRICA","POSGRADO","SEGUNDA ESPECIALIDAD",91,"SALUD","RECONOCIDO POR LIC.","RECONOCIDO POR LIC."
"46","052A","UNIVERSIDAD CÉSAR VALLEJO S.A.C.","PRIVADO","LICENCIA OTORGADA",6,"F05","UPCV-LIMA","LIMA","LIMA","F05L03","LIMA","LIMA","ATE",-12.0228788,-76.9105401,"AUTORIZADO POR LIC.","ADMINISTRACIÓN","PREGRADO","CARRERA PROFESIONAL",41,"ADMINISTRACIÓN Y COMERCIO","RECONOCIDO POR LIC.","RECONOCIDO POR LIC."
"47","001","UNIVERSIDAD NACIONAL MAYOR DE SAN MARCOS","PÚBLICO","LICENCIA OTORGADA",10,"S","UNMSM-LIMA","LIMA","LIMA","SL01","LIMA","LIMA","LIMA",-12.0560257,-77.0844226,"AUTORIZADO POR LIC.","INGENIERÍA GEOGRÁFICA","PREGRADO","CARRERA PROFESIONAL",53,"CIENCIAS FÍSICAS Y QUÍMICAS","RECONOCIDO POR LIC.","RECONOCIDO POR LIC."
"48","069","UNIVERSIDAD CATÓLICA SANTO TORIBIO DE MOGROVEJO","PRIVADO","LICENCIA OTORGADA",6,"S","UCSTM-LAMBAYEQUE","LAMBAYEQUE","CHICLAYO","SL01","LAMBAYEQUE","CHICLAYO","CHICLAYO",-6.760456,-79.863203,"AUTORIZADO POR LIC.","MAESTRÍA EN INGENIERÍA INDUSTRIAL CON MENCIÓN EN GESTIÓN DE OPERACIONES Y LOGÍSTICA","POSGRADO","MAESTRÍA",0,"NINGUNO","RECONOCIDO POR LIC.","RECONOCIDO POR LIC."
"49","019","UNIVERSIDAD DE SAN MARTÍN DE PORRES","PRIVADO","LICENCIA OTORGADA",6,"S","USMP-LIMA","LIMA","LIMA","SL01","LIMA","LIMA","SANTA ANITA",-12.045948,-76.9681914,"AUTORIZADO POR LIC.","ENFERMERÍA EN SALUD PÚBLICA","POSGRADO","SEGUNDA ESPECIALIDAD",2,"SERVICIOS DE HIGIENE Y SALUD OCUPACIONAL","RECONOCIDO POR LIC.","RECONOCIDO POR LIC."
"50","014","UNIVERSIDAD PERUANA CAYETANO HEREDIA","PRIVADO","LICENCIA OTORGADA",10,"S","UPCH-LIMA","LIMA","LIMA","SL04","LIMA","LIMA","MIRAFLORES",-12.13402606,-77.02627908,"AUTORIZADO POR LIC.","MAESTRÍA EN MEDICINA","POSGRADO","MAESTRÍA",91,"SALUD","RECONOCIDO POR LIC.","RECONOCIDO POR LIC."
"51","019","UNIVERSIDAD DE SAN MARTÍN DE PORRES","PRIVADO","LICENCIA OTORGADA",6,"S","USMP-LIMA","LIMA","LIMA","SL06","LIMA","LIMA","SURQUILLO",-12.1052364,-77.0177466,"AUTORIZADO POR LIC.","RELACIONES PÚBLICAS","POSGRADO","MAESTRÍA",41,"ADMINISTRACIÓN Y COMERCIO","RECONOCIDO POR LIC.","RECONOCIDO POR LIC."
"52","030","UNIVERSIDAD RICARDO PALMA","PRIVADO","LICENCIA OTORGADA",6,"S01","URP-LIMA","LIMA","LIMA","S01L01","LIMA","LIMA","SANTIAGO DE SURCO",-12.1318458,-76.9796463,"AUTORIZADO POR LIC.","ESPECIALIDAD: MEDICINA NUCLEAR","POSGRADO","SEGUNDA ESPECIALIDAD",0,"NINGUNO","RECONOCIDO POR LIC.","RECONOCIDO POR LIC."
"53","016","UNIVERSIDAD NACIONAL DE CAJAMARCA","PÚBLICO","LICENCIA OTORGADA",6,"S01","UNC-CAJAMARCA","CAJAMARCA","CAJAMARCA","S01L01","CAJAMARCA","CAJAMARCA","CAJAMARCA",-7.167159,-78.4965043,"AUTORIZADO POR LIC.","MEDICINA OCUPACIONAL Y DEL MEDIO AMBIENTE","POSGRADO","SEGUNDA ESPECIALIDAD",2,"SERVICIOS DE HIGIENE Y SALUD OCUPACIONAL","RECONOCIDO POR LIC.","RECONOCIDO POR LIC."
"54","046","UNIVERSIDAD PRIVADA ANTENOR ORREGO","PRIVADO","LICENCIA OTORGADA",6,"S","UPAO-LA LIBERTAD","LA LIBERTAD","TRUJILLO","SL01","LA LIBERTAD","TRUJILLO","TRUJILLO",-8.1270487,-79.0314756,"AUTORIZADO POR LIC.","PEDIATRÍA","POSGRADO","SEGUNDA ESPECIALIDAD",91,"SALUD","RECONOCIDO POR LIC.","RECONOCIDO POR LIC."
"55","002","UNIVERSIDAD NACIONAL DE SAN CRISTÓBAL DE HUAMANGA","PÚBLICO","LICENCIA OTORGADA",6,"S","UNSCH-AYACUCHO","AYACUCHO","HUAMANGA","SL01","AYACUCHO","HUAMANGA","AYACUCHO",-13.1612654,-74.2257339,"AUTORIZADO POR LIC.","MAESTRÍA EN GERENCIA DE SERVICIOS DE SALUD","POSGRADO","MAESTRÍA",41,"ADMINISTRACIÓN Y COMERCIO","RECONOCIDO POR LIC.","RECONOCIDO POR LIC."
"56","012","UNIVERSIDAD NACIONAL DEL ALTIPLANO","PÚBLICO","LICENCIA OTORGADA",6,"S","UNA-PUNO","PUNO","PUNO","SL01","PUNO","PUNO","PUNO",-15.8243805,-70.0162544,"AUTORIZADO POR LIC.","MAESTRÍA EN CONTABILIDAD Y ADMINISTRACIÓN MENCIÓN EN MARKETING Y NEGOCIOS INTERNACIONALES","POSGRADO","MAESTRÍA",41,"ADMINISTRACIÓN Y COMERCIO","RECONOCIDO POR LIC.","RECONOCIDO POR LIC."
"57","001","UNIVERSIDAD NACIONAL MAYOR DE SAN MARCOS","PÚBLICO","LICENCIA OTORGADA",10,"S","UNMSM-LIMA","LIMA","LIMA","SL01","LIMA","LIMA","LIMA",-12.0560257,-77.0844226,"AUTORIZADO POR LIC.","GÉNERO Y DESARROLLO","POSGRADO","MAESTRÍA",31,"CIENCIAS SOCIALES Y DEL COMPORTAMIENTO","RECONOCIDO POR LIC.","RECONOCIDO POR LIC."
"58","042","UNIVERSIDAD NACIONAL DEL SANTA","PÚBLICO","LICENCIA OTORGADA",6,"S","UNS-ÁNCASH","ÁNCASH","SANTA","SL01","ÁNCASH","SANTA","NUEVO CHIMBOTE",-9.1195533,-78.5133704,"DECLARADO","ENFERMERÍA","PREGRADO","CARRERA PROFESIONAL",91,"SALUD","RECONOCIDO POR LIC.","RECONOCIDO POR LIC."
"59","014","UNIVERSIDAD PERUANA CAYETANO HEREDIA","PRIVADO","LICENCIA OTORGADA",10,"S","UPCH-LIMA","LIMA","LIMA","SL02","LIMA","LIMA","LA MOLINA",-12.0695303,-76.9685595,"AUTORIZADO POR LIC.","DOCTORADO EN CIENCIAS DE LA VIDA","POSGRADO","DOCTORADO",51,"CIENCIAS BIOLÓGICAS Y AFINES","RECONOCIDO POR LIC.","RECONOCIDO POR LIC."
"60","052A","UNIVERSIDAD CÉSAR VALLEJO S.A.C.","PRIVADO","LICENCIA OTORGADA",6,"F05","UPCV-LIMA","LIMA","LIMA","F05L02","LIMA","LIMA","SAN JUAN DE LURIGANCHO",-11.9814929,-77.0001665,"AUTORIZADO POR LIC.","ADMINISTRACIÓN EN TURISMO Y HOTELERÍA","PREGRADO","CARRERA PROFESIONAL",1,"SERVICIOS PERSONALES","RECONOCIDO POR LIC.","RECONOCIDO POR LIC."
"61","011","UNIVERSIDAD NACIONAL DE LA AMAZONÍA PERUANA","PÚBLICO","LICENCIA OTORGADA",8,"S","UNAP-LORETO","LORETO","MAYNAS","SL08","LORETO","MAYNAS","IQUITOS",-3.7527575,-73.2699785,"AUTORIZADO POR LIC.","SEGUNDA ESPECIALIDAD PROFESIONAL EN ENFERMERÍA EN SALUD OCUPACIONAL","POSGRADO","SEGUNDA ESPECIALIDAD",0,"NINGUNO","RECONOCIDO POR LIC.","RECONOCIDO POR LIC."
"62","001","UNIVERSIDAD NACIONAL MAYOR DE SAN MARCOS","PÚBLICO","LICENCIA OTORGADA",10,"S","UNMSM-LIMA","LIMA","LIMA","SL01","LIMA","LIMA","LIMA",-12.0560257,-77.0844226,"AUTORIZADO POR LIC.","INGENIERÍA ELECTRÓNICA","PREGRADO","CARRERA PROFESIONAL",71,"INGENIERÍA Y PROFESIONES AFINES","RECONOCIDO POR LIC.","RECONOCIDO POR LIC."
"63","052A","UNIVERSIDAD CÉSAR VALLEJO S.A.C.","PRIVADO","LICENCIA OTORGADA",6,"S","UPCV-LA LIBERTAD","LA LIBERTAD","TRUJILLO","SL01","LA LIBERTAD","TRUJILLO","VICTOR LARCO HERRERA",-8.1293904,-79.0433213,"AUTORIZADO POR LIC.","SEGUNDA ESPECIALIDAD EN NEUMOLOGÍA","POSGRADO","SEGUNDA ESPECIALIDAD",91,"SALUD","RECONOCIDO POR LIC.","RECONOCIDO POR LIC."
"64","003","UNIVERSIDAD NACIONAL DE SAN ANTONIO ABAD DEL CUSCO","PÚBLICO","LICENCIA OTORGADA",8,"S","UNSAAC-CUSCO","CUSCO","CUSCO","SL01","CUSCO","CUSCO","CUSCO",-13.52193,-71.9583208,"AUTORIZADO POR LIC.","EDUCACIÓN SECUNDARIA ESPECIALIDAD CIENCIAS NATURALES","PREGRADO","CARRERA PROFESIONAL",0,"NINGUNO","RECONOCIDO POR LIC.","RECONOCIDO POR LIC."
"65","068","UNIVERSIDAD CIENTÍFICA DEL SUR S.A.C.","PRIVADO","LICENCIA OTORGADA",6,"S","UCS-LIMA","LIMA","LIMA","SL03","LIMA","LIMA","MIRAFLORES",-12.1211435,-77.0256582,"AUTORIZADO POR LIC.","MAESTRÍA EN EDUCACIÓN SUPERIOR CON MENCIÓN EN DOCENCIA E INVESTIGACIÓN UNIVERSITARIA","POSGRADO","MAESTRÍA",13,"EDUCACIÓN SUPERIOR Y TECNOLÓGICA","RECONOCIDO POR LIC.","RECONOCIDO POR LIC."
"66","011","UNIVERSIDAD NACIONAL DE LA AMAZONÍA PERUANA","PÚBLICO","LICENCIA OTORGADA",8,"S","UNAP-LORETO","LORETO","MAYNAS","SL06","LORETO","MAYNAS","IQUITOS",-3.749609062,-73.24723057,"AUTORIZADO POR LIC.","EDUCACIÓN SECUNDARIA CON ESPECIALIDAD EN CIENCIAS NATURALES","PREGRADO","CARRERA PROFESIONAL",12,"EDUCACIÓN SECUNDARIA","RECONOCIDO POR LIC.","RECONOCIDO POR LIC."
"67","014","UNIVERSIDAD PERUANA CAYETANO HEREDIA","PRIVADO","LICENCIA OTORGADA",10,"S","UPCH-LIMA","LIMA","LIMA","SL03","LIMA","LIMA","SAN ISIDRO",-12.091066,-77.052041,"AUTORIZADO POR LIC.","PROGRAMA DE SEGUNDA ESPECIALIDAD PROFESIONAL EN ENFERMERÍA EN CENTRO QUIRÚRGICO ESPECIALIZADO","POSGRADO","SEGUNDA ESPECIALIDAD",91,"SALUD","RECONOCIDO POR LIC.","RECONOCIDO POR LIC."
"68","014","UNIVERSIDAD PERUANA CAYETANO HEREDIA","PRIVADO","LICENCIA OTORGADA",10,"S","UPCH-LIMA","LIMA","LIMA","SL03","LIMA","LIMA","SAN ISIDRO",-12.091066,-77.052041,"AUTORIZADO POR LIC.","PROGRAMA DE SEGUNDA ESPECIALIDAD PROFESIONAL EN ENFERMERÍA EN SALUD FAMILIAR Y COMUNITARIA","POSGRADO","SEGUNDA ESPECIALIDAD",2,"SERVICIOS DE HIGIENE Y SALUD OCUPACIONAL","RECONOCIDO POR LIC.","RECONOCIDO POR LIC."
"69","014","UNIVERSIDAD PERUANA CAYETANO HEREDIA","PRIVADO","LICENCIA OTORGADA",10,"S","UPCH-LIMA","LIMA","LIMA","SL01","LIMA","LIMA","SAN MARTÍN DE PORRES",-12.0239471,-77.0564991,"AUTORIZADO POR LIC.","PROGRAMA DE SEGUNDA ESPECIALIDAD PROFESIONAL EN PRODUCCIÓN, ADMINISTRACIÓN Y SANIDAD AVÍCOLA","POSGRADO","SEGUNDA ESPECIALIDAD",81,"AGRICULTURA","RECONOCIDO POR LIC.","RECONOCIDO POR LIC."
"70","010","UNIVERSIDAD NACIONAL DEL CENTRO DEL PERÚ","PÚBLICO","LICENCIA OTORGADA",6,"F03","UNCP-JUNÍN","JUNÍN","SATIPO","F03L01","JUNÍN","SATIPO","RÍO NEGRO",-11.21401817,-74.65583323,"AUTORIZADO POR LIC.","MAESTRÍA EN DESARROLLO SOSTENIBLE CON MENCIÓN EN GESTIÓN DE LA PRODUCCIÓN ORGÁNICA Y AGRONEGOCIOS","POSGRADO","MAESTRÍA",0,"NINGUNO","RECONOCIDO POR LIC.","RECONOCIDO POR LIC."
"71","005","UNIVERSIDAD NACIONAL DE SAN AGUSTÍN DE AREQUIPA","PÚBLICO","LICENCIA OTORGADA",10,"S","UNSA-AREQUIPA","AREQUIPA","AREQUIPA","SL02","AREQUIPA","AREQUIPA","AREQUIPA",-16.4086078,-71.5285764,"AUTORIZADO POR LIC.","MAESTRÍA EN CIENCIAS: EDUCACIÓN CON MENCIÓN EN EDUCACIÓN SUPERIOR","POSGRADO","MAESTRÍA",13,"EDUCACIÓN SUPERIOR Y TECNOLÓGICA","RECONOCIDO POR LIC.","RECONOCIDO POR LIC."
"72","027","UNIVERSIDAD NACIONAL DEL CALLAO","PÚBLICO","LICENCIA OTORGADA",6,"S","UNC-CALLAO","CALLAO","PROV. CONST. DEL CALLAO","SL01","CALLAO","PROV. CONST. DEL CALLAO","BELLAVISTA",-12.0612769,-77.1173082,"AUTORIZADO POR LIC.","FÍSICA","PREGRADO","CARRERA PROFESIONAL",53,"CIENCIAS FÍSICAS Y QUÍMICAS","RECONOCIDO POR LIC.","RECONOCIDO POR LIC."
"73","020","UNIVERSIDAD FEMENINA DEL SAGRADO CORAZÓN","PRIVADO","LICENCIA OTORGADA",6,"S","UNIFE-LIMA","LIMA","LIMA","SL01","LIMA","LIMA","LA MOLINA",-12.0716313,-76.9650529,"AUTORIZADO POR LIC.","CONTABILIDAD Y FINANZAS","PREGRADO","CARRERA PROFESIONAL",41,"ADMINISTRACIÓN Y COMERCIO","RECONOCIDO POR LIC.","RECONOCIDO POR LIC."
"74","008","PONTIFICIA UNIVERSIDAD CATÓLICA DEL PERÚ","PRIVADO","LICENCIA OTORGADA",10,"S","PUCP-LIMA","LIMA","LIMA","SL01","LIMA","LIMA","SAN MIGUEL",-12.0693438,-77.080122,"AUTORIZADO POR LIC.","PROGRAMA DE SEGUNDA ESPECIALIDAD EN DERECHO TRIBUTARIO","POSGRADO","SEGUNDA ESPECIALIDAD",0,"NINGUNO","RECONOCIDO POR LIC.","RECONOCIDO POR LIC."
"75","001","UNIVERSIDAD NACIONAL MAYOR DE SAN MARCOS","PÚBLICO","LICENCIA OTORGADA",10,"S","UNMSM-LIMA","LIMA","LIMA","SL02","LIMA","LIMA","LA VICTORIA",-12.0579394,-77.0229596,"AUTORIZADO POR LIC.","CIRUGÍA PLÁSTICA","POSGRADO","SEGUNDA ESPECIALIDAD",91,"SALUD","RECONOCIDO POR LIC.","RECONOCIDO POR LIC."
"76","035","UNIVERSIDAD NACIONAL DE UCAYALI","PÚBLICO","LICENCIA OTORGADA",6,"S","UNU-UCAYALI","UCAYALI","CORONEL PORTILLO","SL01","UCAYALI","CORONEL PORTILLO","CALLERIA",-8.3948987,-74.5776093,"AUTORIZADO POR LIC.","MAESTRÍA EN GESTIÓN EMPRESARIAL CON MENCIÓN EN AUDITORÍA DE LA GESTIÓN EMPRESARIAL","POSGRADO","MAESTRÍA",41,"ADMINISTRACIÓN Y COMERCIO","RECONOCIDO POR LIC.","RECONOCIDO POR LIC."
"77","035","UNIVERSIDAD NACIONAL DE UCAYALI","PÚBLICO","LICENCIA OTORGADA",6,"S","UNU-UCAYALI","UCAYALI","CORONEL PORTILLO","SL01","UCAYALI","CORONEL PORTILLO","CALLERIA",-8.3948987,-74.5776093,"AUTORIZADO POR LIC.","MAESTRÍA EN EDUCACIÓN CON MENCIÓN EN EDUCACIÓN INFANTIL","POSGRADO","MAESTRÍA",11,"EDUCACIÓN INICIAL Y PRIMARIA","RECONOCIDO POR LIC.","RECONOCIDO POR LIC."
"78","015","UNIVERSIDAD CATÓLICA DE SANTA MARÍA","PRIVADO","LICENCIA OTORGADA",6,"S","UCSM-AREQUIPA","AREQUIPA","AREQUIPA","SL01","AREQUIPA","AREQUIPA","AREQUIPA",-16.4061786,-71.5476298,"AUTORIZADO POR LIC.","CENTRO QUIRÚRGICO","POSGRADO","SEGUNDA ESPECIALIDAD",91,"SALUD","RECONOCIDO POR LIC.","RECONOCIDO POR LIC."
"79","051","UNIVERSIDAD NACIONAL DE HUANCAVELICA","PÚBLICO","LICENCIA OTORGADA",6,"S","UNH-HUANCAVELICA","HUANCAVELICA","HUANCAVELICA","SL01","HUANCAVELICA","HUANCAVELICA","HUANCAVELICA",-12.7781367,-74.9614392,"AUTORIZADO POR LIC.","SEGUNDA ESPECIALIDAD EN SALUD FAMILIAR Y COMUNITARIA","POSGRADO","SEGUNDA ESPECIALIDAD",91,"SALUD","RECONOCIDO POR LIC.","RECONOCIDO POR LIC."
"80","012","UNIVERSIDAD NACIONAL DEL ALTIPLANO","PÚBLICO","LICENCIA OTORGADA",6,"S","UNA-PUNO","PUNO","PUNO","SL01","PUNO","PUNO","PUNO",-15.8243805,-70.0162544,"AUTORIZADO POR LIC.","SEGUNDA ESPECIALIDAD EN PSICOLOGÍA EDUCATIVA","POSGRADO","SEGUNDA ESPECIALIDAD",31,"CIENCIAS SOCIALES Y DEL COMPORTAMIENTO","RECONOCIDO POR LIC.","RECONOCIDO POR LIC."
"81","034","UNIVERSIDAD NACIONAL DE SAN MARTÍN","PÚBLICO","LICENCIA OTORGADA",6,"S","UNSM-SAN MARTÍN","SAN MARTÍN","SAN MARTÍN","SL02","SAN MARTÍN","SAN MARTÍN","MORALES",-6.484769492,-76.37760713,"AUTORIZADO POR LIC.","IDIOMAS","PREGRADO","CARRERA PROFESIONAL",23,"IDIOMAS","RECONOCIDO POR LIC.","RECONOCIDO POR LIC."
"82","061","UNIVERSIDAD PRIVADA NORBERT WIENER S.A.","PRIVADO","LICENCIA OTORGADA",6,"S","UPNW-LIMA","LIMA","LIMA","SL01","LIMA","LIMA","LIMA",-12.0697607,-77.0374712,"AUTORIZADO POR LIC.","SEGUNDA ESPECIALIDAD DE ENFERMERÍA EN SALUD OCUPACIONAL","POSGRADO","SEGUNDA ESPECIALIDAD",2,"SERVICIOS DE HIGIENE Y SALUD OCUPACIONAL","RECONOCIDO POR LIC.","RECONOCIDO POR LIC."
"83","023","UNIVERSIDAD NACIONAL HERMILIO VALDIZÁN DE HUÁNUCO","PÚBLICO","LICENCIA OTORGADA",6,"S","UNHV-HUÁNUCO","HUÁNUCO","HUÁNUCO","SL01","HUÁNUCO","HUÁNUCO","PILLCO MARCA",-9.9496157,-76.2501276,"AUTORIZADO POR LIC.","PROGRAMA DE LICENCIATURA - PROLI","PREGRADO","CARRERA PROFESIONAL",0,"NINGUNO","RECONOCIDO POR LIC.","RECONOCIDO POR LIC."
"84","022","UNIVERSIDAD NACIONAL AGRARIA DE LA SELVA","PÚBLICO","LICENCIA OTORGADA",6,"S","UNAS-HUÁNUCO","HUÁNUCO","LEONCIO PRADO","SL01","HUÁNUCO","LEONCIO PRADO","RUPA-RUPA",-9.313946688,-75.99658307,"AUTORIZADO POR LIC.","ADMINISTRACIÓN","PREGRADO","CARRERA PROFESIONAL",41,"ADMINISTRACIÓN Y COMERCIO","RECONOCIDO POR LIC.","RECONOCIDO POR LIC."
"85","071","UNIVERSIDAD CATÓLICA SEDES SAPIENTIAE","PRIVADO","LICENCIA OTORGADA",6,"F03","UCSS-PIURA","PIURA","MORROPÓN","F03L01","PIURA","MORROPÓN","CHULUCANAS",-5.0975431,-80.1613827,"AUTORIZADO POR LIC.","ADMINISTRACIÓN Y NEGOCIOS INTERNACIONALES","PREGRADO","CARRERA PROFESIONAL",41,"ADMINISTRACIÓN Y COMERCIO","RECONOCIDO POR LIC.","RECONOCIDO POR LIC."
"86","005","UNIVERSIDAD NACIONAL DE SAN AGUSTÍN DE AREQUIPA","PÚBLICO","LICENCIA OTORGADA",10,"S","UNSA-AREQUIPA","AREQUIPA","AREQUIPA","SL01","AREQUIPA","AREQUIPA","AREQUIPA",-16.4027681,-71.5255001,"AUTORIZADO POR LIC.","GERENCIA PÚBLICA Y GOBERNABILIDAD","POSGRADO","SEGUNDA ESPECIALIDAD",41,"ADMINISTRACIÓN Y COMERCIO","RECONOCIDO POR LIC.","RECONOCIDO POR LIC."
"87","014","UNIVERSIDAD PERUANA CAYETANO HEREDIA","PRIVADO","LICENCIA OTORGADA",10,"S","UPCH-LIMA","LIMA","LIMA","SL02","LIMA","LIMA","LA MOLINA",-12.0695303,-76.9685595,"AUTORIZADO POR LIC.","MAESTRÍA EN PSICOLOGÍA EDUCACIONAL CON MENCIÓN EN PSICOLOGÍA ESCOLAR Y PROBLEMAS DE APRENDIZAJE, PSICOPEDAGOGÍA COGNITIVA Y DESARROLLO PSICOLÓGICO","POSGRADO","MAESTRÍA",0,"NINGUNO","RECONOCIDO POR LIC.","RECONOCIDO POR LIC."
"88","019","UNIVERSIDAD DE SAN MARTÍN DE PORRES","PRIVADO","LICENCIA OTORGADA",6,"S","USMP-LIMA","LIMA","LIMA","SL01","LIMA","LIMA","SANTA ANITA",-12.045948,-76.9681914,"AUTORIZADO POR LIC.","CIRUGÍA DE RETINA Y VÍTREO","POSGRADO","SEGUNDA ESPECIALIDAD",91,"SALUD","RECONOCIDO POR LIC.","RECONOCIDO POR LIC."
"89","054","UNIVERSIDAD PERUANA DE CIENCIAS APLICADAS S.A.C.","PRIVADO","LICENCIA OTORGADA",6,"S","UPC-LIMA","LIMA","LIMA","SL10","LIMA","LIMA","CHORRILLOS",-12.1964766,-77.0055369,"AUTORIZADO POR LIC.","MAESTRÍA EN GESTIÓN Y DOCENCIA EN ALIMENTACIÓN Y NUTRICIÓN","POSGRADO","MAESTRÍA",91,"SALUD","RECONOCIDO POR LIC.","RECONOCIDO POR LIC."
"90","023","UNIVERSIDAD NACIONAL HERMILIO VALDIZÁN DE HUÁNUCO","PÚBLICO","LICENCIA OTORGADA",6,"S","UNHV-HUÁNUCO","HUÁNUCO","HUÁNUCO","SL01","HUÁNUCO","HUÁNUCO","PILLCO MARCA",-9.9496157,-76.2501276,"AUTORIZADO POR LIC.","MAESTRÍA EN MEDIO AMBIENTE Y DESARROLLO SOSTENIBLE, MENCIÓN EN GESTIÓN AMBIENTAL","POSGRADO","MAESTRÍA",0,"NINGUNO","RECONOCIDO POR LIC.","RECONOCIDO POR LIC."
"91","055","UNIVERSIDAD PRIVADA DEL NORTE S.A.C.","PRIVADO","LICENCIA OTORGADA",6,"S","UPN-LA LIBERTAD","LA LIBERTAD","TRUJILLO","SL01","LA LIBERTAD","TRUJILLO","TRUJILLO",-8.0998876,-79.0190587,"AUTORIZADO POR LIC.","ARQUITECTURA Y DISEÑO DE INTERIORES","PREGRADO","CARRERA PROFESIONAL",73,"ARQUITECTURA Y CONSTRUCCIÓN","RECONOCIDO POR LIC.","RECONOCIDO POR LIC."
"92","004","UNIVERSIDAD NACIONAL DE TRUJILLO","PÚBLICO","LICENCIA OTORGADA",8,"S","UNT-LA LIBERTAD","LA LIBERTAD","TRUJILLO","SL01","LA LIBERTAD","TRUJILLO","TRUJILLO",-8.1142716,-79.0383735,"AUTORIZADO POR LIC.","MAESTRÍA EN INGENIERÍA DE MINAS CON MENCIÓN EN GESTIÓN DE SEGURIDAD MINERA","POSGRADO","MAESTRÍA",72,"INDUSTRIA Y PRODUCCIÓN","RECONOCIDO POR LIC.","RECONOCIDO POR LIC."
"93","012","UNIVERSIDAD NACIONAL DEL ALTIPLANO","PÚBLICO","LICENCIA OTORGADA",6,"S","UNA-PUNO","PUNO","PUNO","SL01","PUNO","PUNO","PUNO",-15.8243805,-70.0162544,"AUTORIZADO POR LIC.","MAESTRÍA EN INGENIERÍA CIVIL MENCIÓN TRANSPORTES E INFRAESTRUCTURA VIAL","POSGRADO","MAESTRÍA",73,"ARQUITECTURA Y CONSTRUCCIÓN","RECONOCIDO POR LIC.","RECONOCIDO POR LIC."
"94","014","UNIVERSIDAD PERUANA CAYETANO HEREDIA","PRIVADO","LICENCIA OTORGADA",10,"S","UPCH-LIMA","LIMA","LIMA","SL03","LIMA","LIMA","SAN ISIDRO",-12.091066,-77.052041,"AUTORIZADO POR LIC.","MAESTRÍA EN PERIODONCIA","POSGRADO","MAESTRÍA",91,"SALUD","RECONOCIDO POR LIC.","RECONOCIDO POR LIC."
"95","025","UNIVERSIDAD NACIONAL DE EDUCACIÓN ENRIQUE GUZMÁN Y VALLE","PÚBLICO","LICENCIA OTORGADA",6,"S","UNEEGV-LIMA","LIMA","LIMA","SL01","LIMA","LIMA","LURIGANCHO",-11.9475748,-76.7011822,"AUTORIZADO POR LIC.","EDUCACIÓN CON ESPECIALIDAD DE EBANISTERÍA Y DECORACIÓN","PREGRADO","CARRERA PROFESIONAL",0,"NINGUNO","RECONOCIDO POR LIC.","RECONOCIDO POR LIC."
"96","011","UNIVERSIDAD NACIONAL DE LA AMAZONÍA PERUANA","PÚBLICO","LICENCIA OTORGADA",8,"S","UNAP-LORETO","LORETO","MAYNAS","SL11","LORETO","MAYNAS","SAN JUAN BAUTISTA",-3.7739833,-73.2660385,"AUTORIZADO POR LIC.","INGENIERÍA EN INDUSTRIAS ALIMENTARIAS","PREGRADO","CARRERA PROFESIONAL",72,"INDUSTRIA Y PRODUCCIÓN","RECONOCIDO POR LIC.","RECONOCIDO POR LIC."
"97","061","UNIVERSIDAD PRIVADA NORBERT WIENER S.A.","PRIVADO","LICENCIA OTORGADA",6,"S","UPNW-LIMA","LIMA","LIMA","SL02","LIMA","LIMA","LIMA",-12.0687433,-77.0369808,"AUTORIZADO POR LIC.","MEDICINA HUMANA","PREGRADO","CARRERA PROFESIONAL",91,"SALUD","RECONOCIDO POR LIC.","RECONOCIDO POR LIC."
"98","010","UNIVERSIDAD NACIONAL DEL CENTRO DEL PERÚ","PÚBLICO","LICENCIA OTORGADA",6,"S","UNCP-JUNÍN","JUNÍN","HUANCAYO","SL01","JUNÍN","HUANCAYO","EL TAMBO",-12.0330464,-75.237332,"AUTORIZADO POR LIC.","MAESTRÍA EN GESTIÓN PÚBLICA","POSGRADO","MAESTRÍA",41,"ADMINISTRACIÓN Y COMERCIO","RECONOCIDO POR LIC.","RECONOCIDO POR LIC."
"99","022","UNIVERSIDAD NACIONAL AGRARIA DE LA SELVA","PÚBLICO","LICENCIA OTORGADA",6,"S","UNAS-HUÁNUCO","HUÁNUCO","LEONCIO PRADO","SL01","HUÁNUCO","LEONCIO PRADO","RUPA-RUPA",-9.313946688,-75.99658307,"AUTORIZADO POR LIC.","MAESTRÍA EN CIENCIAS ECONÓMICAS MENCIÓN: POLÍTICA Y ADMINISTRACIÓN TRIBUTARIA","POSGRADO","MAESTRÍA",0,"NINGUNO","RECONOCIDO POR LIC.","RECONOCIDO POR LIC."
"100","011","UNIVERSIDAD NACIONAL DE LA AMAZONÍA PERUANA","PÚBLICO","LICENCIA OTORGADA",8,"F06","UNAP-LORETO","LORETO","LORETO","F06L01","LORETO","LORETO","NAUTA",-4.5050176,-73.5770072,"AUTORIZADO POR LIC.","EDUCACIÓN FÍSICA, CON MENCIÓN EN FORMACIÓN DEPORTIVA","PREGRADO","CARRERA PROFESIONAL",0,"NINGUNO","RECONOCIDO POR LIC.","RECONOCIDO POR LIC."
"101","014","UNIVERSIDAD PERUANA CAYETANO HEREDIA","PRIVADO","LICENCIA OTORGADA",10,"S","UPCH-LIMA","LIMA","LIMA","SL01","LIMA","LIMA","SAN MARTÍN DE PORRES",-12.0239471,-77.0564991,"AUTORIZADO POR LIC.","PROGRAMA DE SEGUNDA ESPECIALIDAD PROFESIONAL EN ESTADÍSTICA EN INVESTIGACIÓN","POSGRADO","SEGUNDA ESPECIALIDAD",54,"MATEMÁTICAS Y ESTADÍSTICA","RECONOCIDO POR LIC.","RECONOCIDO POR LIC."
"102","014","UNIVERSIDAD PERUANA CAYETANO HEREDIA","PRIVADO","LICENCIA OTORGADA",10,"S","UPCH-LIMA","LIMA","LIMA","SL01","LIMA","LIMA","SAN MARTÍN DE PORRES",-12.0239471,-77.0564991,"AUTORIZADO POR LIC.","PROGRAMA DE SEGUNDA ESPECIALIDAD PROFESIONAL EN ENFERMERÍA EN SALUD MENTAL Y PSIQUIATRÍA","POSGRADO","SEGUNDA ESPECIALIDAD",91,"SALUD","RECONOCIDO POR LIC.","RECONOCIDO POR LIC."
"103","004","UNIVERSIDAD NACIONAL DE TRUJILLO","PÚBLICO","LICENCIA OTORGADA",8,"S","UNT-LA LIBERTAD","LA LIBERTAD","TRUJILLO","SL01","LA LIBERTAD","TRUJILLO","TRUJILLO",-8.1142716,-79.0383735,"AUTORIZADO POR LIC.","INGENIERÍA CIVIL","PREGRADO","CARRERA PROFESIONAL",73,"ARQUITECTURA Y CONSTRUCCIÓN","RECONOCIDO POR LIC.","RECONOCIDO POR LIC."
"104","043","UNIVERSIDAD PRIVADA DE TACNA","PRIVADO","LICENCIA OTORGADA",6,"S","UPT-TACNA","TACNA","TACNA","SL01","TACNA","TACNA","POCOLLAY",-18.0058389,-70.2254838,"AUTORIZADO POR LIC.","SEGUNDA ESPECIALIDAD EN INGENIERÍA AMBIENTAL","POSGRADO","SEGUNDA ESPECIALIDAD",52,"MEDIO AMBIENTE","RECONOCIDO POR LIC.","RECONOCIDO POR LIC."
"105","003","UNIVERSIDAD NACIONAL DE SAN ANTONIO ABAD DEL CUSCO","PÚBLICO","LICENCIA OTORGADA",8,"S","UNSAAC-CUSCO","CUSCO","CUSCO","SL01","CUSCO","CUSCO","CUSCO",-13.52193,-71.9583208,"AUTORIZADO POR LIC.","SEGUNDA ESPECIALIDAD EN MEDICINA HUMANA - RESIDENTADO MÉDICO DE LA ESPECIALIDAD: MEDICINA INTENSIVA","POSGRADO","SEGUNDA ESPECIALIDAD",91,"SALUD","RECONOCIDO POR LIC.","RECONOCIDO POR LIC."
"106","104","UNIVERSIDAD LE CORDON BLEU S.A.C.","PRIVADO","LICENCIA OTORGADA",6,"S","ULCB-LIMA","LIMA","LIMA","SL01","LIMA","LIMA","MAGDALENA DEL MAR",-12.0985893,-77.05636,"AUTORIZADO POR LIC.","MARKETING Y GESTIÓN COMERCIAL","PREGRADO","CARRERA PROFESIONAL",41,"ADMINISTRACIÓN Y COMERCIO","RECONOCIDO POR LIC.","RECONOCIDO POR LIC."
"107","002","UNIVERSIDAD NACIONAL DE SAN CRISTÓBAL DE HUAMANGA","PÚBLICO","LICENCIA OTORGADA",6,"S","UNSCH-AYACUCHO","AYACUCHO","HUAMANGA","SL01","AYACUCHO","HUAMANGA","AYACUCHO",-13.1612654,-74.2257339,"AUTORIZADO POR LIC.","INGENIERÍA DE SISTEMAS","PREGRADO","CARRERA PROFESIONAL",61,"INFORMÁTICA","RECONOCIDO POR LIC.","RECONOCIDO POR LIC."
"108","032","UNIVERSIDAD NACIONAL JORGE BASADRE GROHMANN","PÚBLICO","LICENCIA OTORGADA",6,"S","UNJBG-TACNA","TACNA","TACNA","SL01","TACNA","TACNA","TACNA",-18.0251828,-70.2505031,"AUTORIZADO POR LIC.","MEDICINA HUMANA","PREGRADO","CARRERA PROFESIONAL",91,"SALUD","RECONOCIDO POR LIC.","RECONOCIDO POR LIC."
"109","014","UNIVERSIDAD PERUANA CAYETANO HEREDIA","PRIVADO","LICENCIA OTORGADA",10,"S","UPCH-LIMA","LIMA","LIMA","SL03","LIMA","LIMA","SAN ISIDRO",-12.091066,-77.052041,"AUTORIZADO POR LIC.","BIOESTADÍSTICA","POSGRADO","MAESTRÍA",54,"MATEMÁTICAS Y ESTADÍSTICA","RECONOCIDO POR LIC.","RECONOCIDO POR LIC."
"110","065","UNIVERSIDAD TECNOLÓGICA DEL PERÚ S.A.C.","PRIVADO","LICENCIA OTORGADA",6,"S","UTP-LIMA","LIMA","LIMA","SL03","LIMA","LIMA","LIMA",-12.0672473,-77.03584406,"AUTORIZADO POR LIC.","MAESTRÍA EN PROJECT MANAGEMENT","POSGRADO","MAESTRÍA",41,"ADMINISTRACIÓN Y COMERCIO","RECONOCIDO POR LIC.","RECONOCIDO POR LIC."
"111","052A","UNIVERSIDAD CÉSAR VALLEJO S.A.C.","PRIVADO","LICENCIA OTORGADA",6,"F05","UPCV-LIMA","LIMA","LIMA","F05L01","LIMA","LIMA","LOS OLIVOS",-11.9552328,-77.0685585,"AUTORIZADO POR LIC.","DOCTORADO EN ADMINISTRACIÓN","POSGRADO","DOCTORADO",41,"ADMINISTRACIÓN Y COMERCIO","RECONOCIDO POR LIC.","RECONOCIDO POR LIC."
"112","052A","UNIVERSIDAD CÉSAR VALLEJO S.A.C.","PRIVADO","LICENCIA OTORGADA",6,"F03","UPCV-SAN MARTÍN","SAN MARTÍN","SAN MARTÍN","F03L02","SAN MARTÍN","SAN MARTÍN","TARAPOTO",-6.4888233,-76.3616983,"AUTORIZADO POR LIC.","CONTABILIDAD","PREGRADO","CARRERA PROFESIONAL",41,"ADMINISTRACIÓN Y COMERCIO","RECONOCIDO POR LIC.","RECONOCIDO POR LIC."
"113","068","UNIVERSIDAD CIENTÍFICA DEL SUR S.A.C.","PRIVADO","LICENCIA OTORGADA",6,"S","UCS-LIMA","LIMA","LIMA","SL03","LIMA","LIMA","MIRAFLORES",-12.1211435,-77.0256582,"AUTORIZADO POR LIC.","SEGUNDA ESPECIALIDAD EN PEDIATRÍA","POSGRADO","SEGUNDA ESPECIALIDAD",91,"SALUD","RECONOCIDO POR LIC.","RECONOCIDO POR LIC."
"114","003","UNIVERSIDAD NACIONAL DE SAN ANTONIO ABAD DEL CUSCO","PÚBLICO","LICENCIA OTORGADA",8,"S","UNSAAC-CUSCO","CUSCO","CUSCO","SL01","CUSCO","CUSCO","CUSCO",-13.52193,-71.9583208,"AUTORIZADO POR LIC.","MAESTRÍA EN INGENIERÍA CIVIL MENCIÓN RECURSOS HÍDRICOS Y MEDIO AMBIENTE","POSGRADO","MAESTRÍA",0,"NINGUNO","RECONOCIDO POR LIC.","RECONOCIDO POR LIC."
"115","014","UNIVERSIDAD PERUANA CAYETANO HEREDIA","PRIVADO","LICENCIA OTORGADA",10,"S","UPCH-LIMA","LIMA","LIMA","SL02","LIMA","LIMA","LA MOLINA",-12.0695303,-76.9685595,"AUTORIZADO POR LIC.","PROGRAMA DE SEGUNDA ESPECIALIDAD PROFESIONAL EN ODONTOPEDIATRIA","POSGRADO","SEGUNDA ESPECIALIDAD",91,"SALUD","RECONOCIDO POR LIC.","RECONOCIDO POR LIC."
"116","071","UNIVERSIDAD CATÓLICA SEDES SAPIENTIAE","PRIVADO","LICENCIA OTORGADA",6,"F05","UCSS-JUNÍN","JUNÍN","TARMA","F05L01","JUNÍN","TARMA","TARMA",-11.4175125,-75.6809387,"AUTORIZADO POR LIC.","INGENIERÍA AMBIENTAL","PREGRADO","CARRERA PROFESIONAL",52,"MEDIO AMBIENTE","RECONOCIDO POR LIC.","RECONOCIDO POR LIC."
"117","005","UNIVERSIDAD NACIONAL DE SAN AGUSTÍN DE AREQUIPA","PÚBLICO","LICENCIA OTORGADA",10,"S","UNSA-AREQUIPA","AREQUIPA","AREQUIPA","SL03","AREQUIPA","AREQUIPA","AREQUIPA",-16.4091607,-71.5366759,"AUTORIZADO POR LIC.","MAESTRÍA EN CIENCIAS: SALUD PÚBLICA CON MENCIÓN EN: AUDITORÍA MÉDICA","POSGRADO","MAESTRÍA",91,"SALUD","RECONOCIDO POR LIC.","RECONOCIDO POR LIC."
"118","052A","UNIVERSIDAD CÉSAR VALLEJO S.A.C.","PRIVADO","LICENCIA OTORGADA",6,"S","UPCV-LA LIBERTAD","LA LIBERTAD","TRUJILLO","SL05","LA LIBERTAD","TRUJILLO","MOCHE",-8.1637036,-79.002342,"AUTORIZADO POR LIC.","INGENIERÍA CIVIL","PREGRADO","CARRERA PROFESIONAL",73,"ARQUITECTURA Y CONSTRUCCIÓN","RECONOCIDO POR LIC.","RECONOCIDO POR LIC."
"119","039","UNIVERSIDAD ANDINA DEL CUSCO","PRIVADO","LICENCIA OTORGADA",6,"S","UAC-CUSCO","CUSCO","CUSCO","SL03","CUSCO","CUSCO","SAN JERÓNIMO",-13.5211728,-71.9666458,"AUTORIZADO POR LIC.","SEGUNDA ESPECIALIDAD EN ORTODONCIA Y ORTOPEDIA FUNCIONAL DE LOS MAXILARES","POSGRADO","SEGUNDA ESPECIALIDAD",91,"SALUD","RECONOCIDO POR LIC.","RECONOCIDO POR LIC."
"120","013","UNIVERSIDAD NACIONAL DE PIURA","PÚBLICO","LICENCIA OTORGADA",6,"S","UNP-PIURA","PIURA","PIURA","SL01","PIURA","PIURA","CASTILLA",-5.179311,-80.6188325,"AUTORIZADO POR LIC.","SEGUNDA ESPECIALIDAD EN ANESTESIOLOGÍA","POSGRADO","SEGUNDA ESPECIALIDAD",91,"SALUD","RECONOCIDO POR LIC.","RECONOCIDO POR LIC."
"121","065","UNIVERSIDAD TECNOLÓGICA DEL PERÚ S.A.C.","PRIVADO","LICENCIA OTORGADA",6,"S","UTP-LIMA","LIMA","LIMA","SL05","LIMA","LIMA","LIMA",-12.0624396,-77.0405951,"AUTORIZADO POR LIC.","INGENIERÍA BIOMÉDICA","PREGRADO","CARRERA PROFESIONAL",91,"SALUD","RECONOCIDO POR LIC.","RECONOCIDO POR LIC."
"122","032","UNIVERSIDAD NACIONAL JORGE BASADRE GROHMANN","PÚBLICO","LICENCIA OTORGADA",6,"S","UNJBG-TACNA","TACNA","TACNA","SL01","TACNA","TACNA","TACNA",-18.0251828,-70.2505031,"AUTORIZADO POR LIC.","EDUCACIÓN: CIENCIAS SOCIALES Y PROMOCIÓN SOCIO - CULTURAL","PREGRADO","CARRERA PROFESIONAL",0,"NINGUNO","RECONOCIDO POR LIC.","RECONOCIDO POR LIC."
"123","052A","UNIVERSIDAD CÉSAR VALLEJO S.A.C.","PRIVADO","LICENCIA OTORGADA",6,"F04","UPCV-ÁNCASH","ÁNCASH","SANTA","F04L01","ÁNCASH","SANTA","NUEVO CHIMBOTE",-9.1273857,-78.5112518,"AUTORIZADO POR LIC.","MAESTRÍA EN GESTIÓN DEL TALENTO HUMANO","POSGRADO","MAESTRÍA",41,"ADMINISTRACIÓN Y COMERCIO","RECONOCIDO POR LIC.","RECONOCIDO POR LIC."
"124","046","UNIVERSIDAD PRIVADA ANTENOR ORREGO","PRIVADO","LICENCIA OTORGADA",6,"S","UPAO-LA LIBERTAD","LA LIBERTAD","TRUJILLO","SL01","LA LIBERTAD","TRUJILLO","TRUJILLO",-8.1270487,-79.0314756,"AUTORIZADO POR LIC.","NEUROCIRUGÍA","POSGRADO","SEGUNDA ESPECIALIDAD",91,"SALUD","RECONOCIDO POR LIC.","RECONOCIDO POR LIC."
"125","032","UNIVERSIDAD NACIONAL JORGE BASADRE GROHMANN","PÚBLICO","LICENCIA OTORGADA",6,"S","UNJBG-TACNA","TACNA","TACNA","SL01","TACNA","TACNA","TACNA",-18.0251828,-70.2505031,"AUTORIZADO POR LIC.","EDUCACIÓN INTERCULTURAL BILINGÜE","POSGRADO","SEGUNDA ESPECIALIDAD",19,"OTROS PROGRAMAS EN EDUCACIÓN","RECONOCIDO POR LIC.","RECONOCIDO POR LIC."
"126","001","UNIVERSIDAD NACIONAL MAYOR DE SAN MARCOS","PÚBLICO","LICENCIA OTORGADA",10,"S","UNMSM-LIMA","LIMA","LIMA","SL01","LIMA","LIMA","LIMA",-12.0560257,-77.0844226,"AUTORIZADO POR LIC.","LITERATURA","POSGRADO","MAESTRÍA",23,"IDIOMAS","RECONOCIDO POR LIC.","RECONOCIDO POR LIC."
"127","005","UNIVERSIDAD NACIONAL DE SAN AGUSTÍN DE AREQUIPA","PÚBLICO","LICENCIA OTORGADA",10,"S","UNSA-AREQUIPA","AREQUIPA","AREQUIPA","SL01","AREQUIPA","AREQUIPA","AREQUIPA",-16.4027681,-71.5255001,"AUTORIZADO POR LIC.","MAESTRÍA EN CIENCIAS: CON MENCIÓN EN SEGURIDAD Y MEDIO AMBIENTE","POSGRADO","MAESTRÍA",0,"NINGUNO","RECONOCIDO POR LIC.","RECONOCIDO POR LIC."
"128","001","UNIVERSIDAD NACIONAL MAYOR DE SAN MARCOS","PÚBLICO","LICENCIA OTORGADA",10,"S","UNMSM-LIMA","LIMA","LIMA","SL03","LIMA","LIMA","LA VICTORIA",-12.057763,-77.0178766,"AUTORIZADO POR LIC.","TECNOLOGÍA MÉDICA","PREGRADO","CARRERA PROFESIONAL",91,"SALUD","RECONOCIDO POR LIC.","RECONOCIDO POR LIC."
"129","002","UNIVERSIDAD NACIONAL DE SAN CRISTÓBAL DE HUAMANGA","PÚBLICO","LICENCIA OTORGADA",6,"S","UNSCH-AYACUCHO","AYACUCHO","HUAMANGA","SL01","AYACUCHO","HUAMANGA","AYACUCHO",-13.1612654,-74.2257339,"AUTORIZADO POR LIC.","INGENIERÍA AGROINDUSTRIAL","PREGRADO","CARRERA PROFESIONAL",81,"AGRICULTURA","RECONOCIDO POR LIC.","RECONOCIDO POR LIC."
"130","005","UNIVERSIDAD NACIONAL DE SAN AGUSTÍN DE AREQUIPA","PÚBLICO","LICENCIA OTORGADA",10,"S","UNSA-AREQUIPA","AREQUIPA","AREQUIPA","SL01","AREQUIPA","AREQUIPA","AREQUIPA",-16.4027681,-71.5255001,"AUTORIZADO POR LIC.","ARQUITECTURA","PREGRADO","CARRERA PROFESIONAL",73,"ARQUITECTURA Y CONSTRUCCIÓN","RECONOCIDO POR LIC.","RECONOCIDO POR LIC."
"131","019","UNIVERSIDAD DE SAN MARTÍN DE PORRES","PRIVADO","LICENCIA OTORGADA",6,"S","USMP-LIMA","LIMA","LIMA","SL06","LIMA","LIMA","SURQUILLO",-12.1052364,-77.0177466,"AUTORIZADO POR LIC.","PERIODISMO Y COMUNICACIÓN MULTIMEDIA","POSGRADO","MAESTRÍA",32,"PERIODISMO E INFORMACIÓN","RECONOCIDO POR LIC.","RECONOCIDO POR LIC."
"132","071","UNIVERSIDAD CATÓLICA SEDES SAPIENTIAE","PRIVADO","LICENCIA OTORGADA",6,"F04","UCSS-SAN MARTÍN","SAN MARTÍN","RIOJA","F04L01","SAN MARTÍN","RIOJA","NUEVA CAJAMARCA",-6.0570484,-77.1657716,"AUTORIZADO POR LIC.","DERECHO","PREGRADO","CARRERA PROFESIONAL",42,"DERECHO","RECONOCIDO POR LIC.","RECONOCIDO POR LIC."
"133","010","UNIVERSIDAD NACIONAL DEL CENTRO DEL PERÚ","PÚBLICO","LICENCIA OTORGADA",6,"S","UNCP-JUNÍN","JUNÍN","HUANCAYO","SL01","JUNÍN","HUANCAYO","EL TAMBO",-12.0330464,-75.237332,"AUTORIZADO POR LIC.","MAESTRÍA EN INGENIERÍA MECÁNICA CON LA MENCIÓN DE: DISEÑO DE TECNOLOGÍAS APROPIADAS","POSGRADO","MAESTRÍA",0,"NINGUNO","RECONOCIDO POR LIC.","RECONOCIDO POR LIC."
"134","051","UNIVERSIDAD NACIONAL DE HUANCAVELICA","PÚBLICO","LICENCIA OTORGADA",6,"S","UNH-HUANCAVELICA","HUANCAVELICA","HUANCAVELICA","SL01","HUANCAVELICA","HUANCAVELICA","HUANCAVELICA",-12.7781367,-74.9614392,"AUTORIZADO POR LIC.","DOCTORADO EN CIENCIAS AMBIENTALES","POSGRADO","DOCTORADO",52,"MEDIO AMBIENTE","RECONOCIDO POR LIC.","RECONOCIDO POR LIC."
"135","014","UNIVERSIDAD PERUANA CAYETANO HEREDIA","PRIVADO","LICENCIA OTORGADA",10,"S","UPCH-LIMA","LIMA","LIMA","SL01","LIMA","LIMA","SAN MARTÍN DE PORRES",-12.0239471,-77.0564991,"AUTORIZADO POR LIC.","PROGRAMA DE SEGUNDA ESPECIALIDAD PROFESIONAL EN CIRUGÍA ONCOLÓGICA ABDOMINAL","POSGRADO","SEGUNDA ESPECIALIDAD",91,"SALUD","RECONOCIDO POR LIC.","RECONOCIDO POR LIC."
"136","014","UNIVERSIDAD PERUANA CAYETANO HEREDIA","PRIVADO","LICENCIA OTORGADA",10,"S","UPCH-LIMA","LIMA","LIMA","SL03","LIMA","LIMA","SAN ISIDRO",-12.091066,-77.052041,"AUTORIZADO POR LIC.","PROGRAMA DE SEGUNDA ESPECIALIDAD PROFESIONAL EN ANESTESIOLOGÍA","POSGRADO","SEGUNDA ESPECIALIDAD",91,"SALUD","RECONOCIDO POR LIC.","RECONOCIDO POR LIC."
"137","054","UNIVERSIDAD PERUANA DE CIENCIAS APLICADAS S.A.C.","PRIVADO","LICENCIA OTORGADA",6,"S","UPC-LIMA","LIMA","LIMA","SL04","LIMA","LIMA","SAN BORJA",-12.1088899,-76.9791362,"AUTORIZADO POR LIC.","COMUNICACIÓN AUDIOVISUAL Y MEDIOS INTERACTIVOS","PREGRADO","CARRERA PROFESIONAL",21,"ARTE","RECONOCIDO POR LIC.","RECONOCIDO POR LIC."
"138","034","UNIVERSIDAD NACIONAL DE SAN MARTÍN","PÚBLICO","LICENCIA OTORGADA",6,"S","UNSM-SAN MARTÍN","SAN MARTÍN","SAN MARTÍN","SL02","SAN MARTÍN","SAN MARTÍN","MORALES",-6.484769492,-76.37760713,"AUTORIZADO POR LIC.","INGENIERÍA AGROINDUSTRIAL","PREGRADO","CARRERA PROFESIONAL",81,"AGRICULTURA","RECONOCIDO POR LIC.","RECONOCIDO POR LIC."
"139","052A","UNIVERSIDAD CÉSAR VALLEJO S.A.C.","PRIVADO","LICENCIA OTORGADA",6,"F08","UPCV-ÁNCASH","ÁNCASH","HUARAZ","F08L01","ÁNCASH","HUARAZ","INDEPENDENCIA",-9.4997255,-77.5361019,"AUTORIZADO POR LIC.","MAESTRÍA EN GESTIÓN PÚBLICA","POSGRADO","MAESTRÍA",41,"ADMINISTRACIÓN Y COMERCIO","RECONOCIDO POR LIC.","RECONOCIDO POR LIC."
"140","014","UNIVERSIDAD PERUANA CAYETANO HEREDIA","PRIVADO","LICENCIA OTORGADA",10,"S","UPCH-LIMA","LIMA","LIMA","SL03","LIMA","LIMA","SAN ISIDRO",-12.091066,-77.052041,"AUTORIZADO POR LIC.","PROGRAMA DE SEGUNDA ESPECIALIDAD PROFESIONAL EN MICROBIOLOGÍA CLÍNICA","POSGRADO","SEGUNDA ESPECIALIDAD",51,"CIENCIAS BIOLÓGICAS Y AFINES","RECONOCIDO POR LIC.","RECONOCIDO POR LIC."
"141","014","UNIVERSIDAD PERUANA CAYETANO HEREDIA","PRIVADO","LICENCIA OTORGADA",10,"S","UPCH-LIMA","LIMA","LIMA","SL04","LIMA","LIMA","MIRAFLORES",-12.13402606,-77.02627908,"AUTORIZADO POR LIC.","MAESTRÍA EN NEUROCIENCIA","POSGRADO","MAESTRÍA",91,"SALUD","RECONOCIDO POR LIC.","RECONOCIDO POR LIC."
"142","001","UNIVERSIDAD NACIONAL MAYOR DE SAN MARCOS","PÚBLICO","LICENCIA OTORGADA",10,"S","UNMSM-LIMA","LIMA","LIMA","SL05","LIMA","LIMA","SAN BORJA",-12.0811453,-76.9874827,"AUTORIZADO POR LIC.","CLÍNICA DE ANIMALES MENORES","POSGRADO","SEGUNDA ESPECIALIDAD",84,"VETERINARIA","RECONOCIDO POR LIC.","RECONOCIDO POR LIC."
"143","055","UNIVERSIDAD PRIVADA DEL NORTE S.A.C.","PRIVADO","LICENCIA OTORGADA",6,"S","UPN-LA LIBERTAD","LA LIBERTAD","TRUJILLO","SL02","LA LIBERTAD","TRUJILLO","TRUJILLO",-8.1002352,-79.0194531,"AUTORIZADO POR LIC.","MAESTRÍA EN INGENIERÍA DE SISTEMAS","POSGRADO","MAESTRÍA",61,"INFORMÁTICA","RECONOCIDO POR LIC.","RECONOCIDO POR LIC."
"144","004","UNIVERSIDAD NACIONAL DE TRUJILLO","PÚBLICO","LICENCIA OTORGADA",8,"S","UNT-LA LIBERTAD","LA LIBERTAD","TRUJILLO","SL01","LA LIBERTAD","TRUJILLO","TRUJILLO",-8.1142716,-79.0383735,"AUTORIZADO POR LIC.","SEGUNDA ESPECIALIDAD EN ORTODONCIA Y ORTOPEDIA MAXILAR","POSGRADO","SEGUNDA ESPECIALIDAD",91,"SALUD","RECONOCIDO POR LIC.","RECONOCIDO POR LIC."
"145","035","UNIVERSIDAD NACIONAL DE UCAYALI","PÚBLICO","LICENCIA OTORGADA",6,"S","UNU-UCAYALI","UCAYALI","CORONEL PORTILLO","SL01","UCAYALI","CORONEL PORTILLO","CALLERIA",-8.3948987,-74.5776093,"AUTORIZADO POR LIC.","MAESTRÍA EN GESTIÓN PÚBLICA","POSGRADO","MAESTRÍA",41,"ADMINISTRACIÓN Y COMERCIO","RECONOCIDO POR LIC.","RECONOCIDO POR LIC."
"146","043","UNIVERSIDAD PRIVADA DE TACNA","PRIVADO","LICENCIA OTORGADA",6,"S","UPT-TACNA","TACNA","TACNA","SL01","TACNA","TACNA","POCOLLAY",-18.0058389,-70.2254838,"AUTORIZADO POR LIC.","MAESTRÍA EN INGENIERÍA CIVIL CON MENCIÓN EN ESTRUCTURAS","POSGRADO","MAESTRÍA",73,"ARQUITECTURA Y CONSTRUCCIÓN","RECONOCIDO POR LIC.","RECONOCIDO POR LIC."
"147","054","UNIVERSIDAD PERUANA DE CIENCIAS APLICADAS S.A.C.","PRIVADO","LICENCIA OTORGADA",6,"S","UPC-LIMA","LIMA","LIMA","SL07","LIMA","LIMA","SAN MIGUEL",-12.0810086,-77.0707359,"AUTORIZADO POR LIC.","PSICOLOGÍA","PREGRADO","CARRERA PROFESIONAL",31,"CIENCIAS SOCIALES Y DEL COMPORTAMIENTO","RECONOCIDO POR LIC.","RECONOCIDO POR LIC."
"148","065","UNIVERSIDAD TECNOLÓGICA DEL PERÚ S.A.C.","PRIVADO","LICENCIA OTORGADA",6,"S","UTP-LIMA","LIMA","LIMA","SL04","LIMA","LIMA","LIMA",-12.0704665,-77.0367812,"AUTORIZADO POR LIC.","NUTRICIÓN Y DIETÉTICA","PREGRADO","CARRERA PROFESIONAL",91,"SALUD","RECONOCIDO POR LIC.","RECONOCIDO POR LIC."
"149","065","UNIVERSIDAD TECNOLÓGICA DEL PERÚ S.A.C.","PRIVADO","LICENCIA OTORGADA",6,"F06","UTP-LA LIBERTAD","LA LIBERTAD","TRUJILLO","F06L01","LA LIBERTAD","TRUJILLO","TRUJILLO",-8.0937853,-79.0088677,"AUTORIZADO POR LIC.","INGENIERÍA INDUSTRIAL","PREGRADO","CARRERA PROFESIONAL",72,"INDUSTRIA Y PRODUCCIÓN","RECONOCIDO POR LIC.","RECONOCIDO POR LIC."
"150","015","UNIVERSIDAD CATÓLICA DE SANTA MARÍA","PRIVADO","LICENCIA OTORGADA",6,"S","UCSM-AREQUIPA","AREQUIPA","AREQUIPA","SL01","AREQUIPA","AREQUIPA","AREQUIPA",-16.4061786,-71.5476298,"AUTORIZADO POR LIC.","INGENIERÍA COMERCIAL","PREGRADO","CARRERA PROFESIONAL",41,"ADMINISTRACIÓN Y COMERCIO","RECONOCIDO POR LIC.","RECONOCIDO POR LIC."
"151","001","UNIVERSIDAD NACIONAL MAYOR DE SAN MARCOS","PÚBLICO","LICENCIA OTORGADA",10,"S","UNMSM-LIMA","LIMA","LIMA","SL01","LIMA","LIMA","LIMA",-12.0560257,-77.0844226,"AUTORIZADO POR LIC.","SOCIOLOGÍA","PREGRADO","CARRERA PROFESIONAL",31,"CIENCIAS SOCIALES Y DEL COMPORTAMIENTO","RECONOCIDO POR LIC.","RECONOCIDO POR LIC."
"152","014","UNIVERSIDAD PERUANA CAYETANO HEREDIA","PRIVADO","LICENCIA OTORGADA",10,"S","UPCH-LIMA","LIMA","LIMA","SL03","LIMA","LIMA","SAN ISIDRO",-12.091066,-77.052041,"AUTORIZADO POR LIC.","PROGRAMA DE SEGUNDA ESPECIALIDAD PROFESIONAL EN ADMINISTRACIÓN Y GESTIÓN EN ESTOMATOLOGÍA","POSGRADO","SEGUNDA ESPECIALIDAD",41,"ADMINISTRACIÓN Y COMERCIO","RECONOCIDO POR LIC.","RECONOCIDO POR LIC."
"153","049","UNIVERSIDAD MARCELINO CHAMPAGNAT","PRIVADO","LICENCIA OTORGADA",6,"S","UMCH-LIMA","LIMA","LIMA","SL01","LIMA","LIMA","SANTIAGO DE SURCO",-12.1363972,-77.0057685,"AUTORIZADO POR LIC.","DOCTORADO EN FILOSOFÍA, MENCIÓN EDUCACIÓN","POSGRADO","DOCTORADO",22,"HUMANIDADES","RECONOCIDO POR LIC.","RECONOCIDO POR LIC."
"154","005","UNIVERSIDAD NACIONAL DE SAN AGUSTÍN DE AREQUIPA","PÚBLICO","LICENCIA OTORGADA",10,"S","UNSA-AREQUIPA","AREQUIPA","AREQUIPA","SL01","AREQUIPA","AREQUIPA","AREQUIPA",-16.4027681,-71.5255001,"AUTORIZADO POR LIC.","OFTALMOLOGÍA PEDIÁTRICA Y ESTRABISMO (COMO SUBESPECIALIDAD)","POSGRADO","SEGUNDA ESPECIALIDAD",0,"NINGUNO","RECONOCIDO POR LIC.","RECONOCIDO POR LIC."
"155","054","UNIVERSIDAD PERUANA DE CIENCIAS APLICADAS S.A.C.","PRIVADO","LICENCIA OTORGADA",6,"S","UPC-LIMA","LIMA","LIMA","SL10","LIMA","LIMA","CHORRILLOS",-12.1964766,-77.0055369,"AUTORIZADO POR LIC.","MÚSICA","PREGRADO","CARRERA PROFESIONAL",21,"ARTE","RECONOCIDO POR LIC.","RECONOCIDO POR LIC."
"156","013","UNIVERSIDAD NACIONAL DE PIURA","PÚBLICO","LICENCIA OTORGADA",6,"S","UNP-PIURA","PIURA","PIURA","SL01","PIURA","PIURA","CASTILLA",-5.179311,-80.6188325,"AUTORIZADO POR LIC.","MAESTRÍA EN CIENCIAS ECONÓMICAS CON MENCIÓN EN ECONOMÍA DEL DESARROLLO","POSGRADO","MAESTRÍA",0,"NINGUNO","RECONOCIDO POR LIC.","RECONOCIDO POR LIC."
"157","003","UNIVERSIDAD NACIONAL DE SAN ANTONIO ABAD DEL CUSCO","PÚBLICO","LICENCIA OTORGADA",8,"S","UNSAAC-CUSCO","CUSCO","CUSCO","SL01","CUSCO","CUSCO","CUSCO",-13.52193,-71.9583208,"AUTORIZADO POR LIC.","HISTORIA","PREGRADO","CARRERA PROFESIONAL",22,"HUMANIDADES","RECONOCIDO POR LIC.","RECONOCIDO POR LIC."
"158","001","UNIVERSIDAD NACIONAL MAYOR DE SAN MARCOS","PÚBLICO","LICENCIA OTORGADA",10,"S","UNMSM-LIMA","LIMA","LIMA","SL05","LIMA","LIMA","SAN BORJA",-12.0811453,-76.9874827,"AUTORIZADO POR LIC.","GERENCIA DE PROGRAMAS DE SALUD Y PRODUCCIÓN ANIMAL","POSGRADO","SEGUNDA ESPECIALIDAD",84,"VETERINARIA","RECONOCIDO POR LIC.","RECONOCIDO POR LIC."
"159","068","UNIVERSIDAD CIENTÍFICA DEL SUR S.A.C.","PRIVADO","LICENCIA OTORGADA",6,"S","UCS-LIMA","LIMA","LIMA","SL03","LIMA","LIMA","MIRAFLORES",-12.1211435,-77.0256582,"AUTORIZADO POR LIC.","MAESTRÍA EN DIRECCIÓN Y CONSULTORÍA TURÍSTICA","POSGRADO","MAESTRÍA",1,"SERVICIOS PERSONALES","RECONOCIDO POR LIC.","RECONOCIDO POR LIC."
"160","001","UNIVERSIDAD NACIONAL MAYOR DE SAN MARCOS","PÚBLICO","LICENCIA OTORGADA",10,"S","UNMSM-LIMA","LIMA","LIMA","SL01","LIMA","LIMA","LIMA",-12.0560257,-77.0844226,"AUTORIZADO POR LIC.","INGENIERÍA QUÍMICA","PREGRADO","CARRERA PROFESIONAL",53,"CIENCIAS FÍSICAS Y QUÍMICAS","RECONOCIDO POR LIC.","RECONOCIDO POR LIC."
"161","014","UNIVERSIDAD PERUANA CAYETANO HEREDIA","PRIVADO","LICENCIA OTORGADA",10,"S","UPCH-LIMA","LIMA","LIMA","SL03","LIMA","LIMA","SAN ISIDRO",-12.091066,-77.052041,"AUTORIZADO POR LIC.","PROGRAMA DE SEGUNDA ESPECIALIDAD PROFESIONAL EN MEDICINA HIPERBÁRICA Y SUBACUÁTICA","POSGRADO","SEGUNDA ESPECIALIDAD",91,"SALUD","RECONOCIDO POR LIC.","RECONOCIDO POR LIC."
"162","014","UNIVERSIDAD PERUANA CAYETANO HEREDIA","PRIVADO","LICENCIA OTORGADA",10,"S","UPCH-LIMA","LIMA","LIMA","SL01","LIMA","LIMA","SAN MARTÍN DE PORRES",-12.0239471,-77.0564991,"AUTORIZADO POR LIC.","PROGRAMA DE SEGUNDA ESPECIALIDAD PROFESIONAL EN PATOLOGÍA ONCOLÓGICA","POSGRADO","SEGUNDA ESPECIALIDAD",91,"SALUD","RECONOCIDO POR LIC.","RECONOCIDO POR LIC."
"163","019","UNIVERSIDAD DE SAN MARTÍN DE PORRES","PRIVADO","LICENCIA OTORGADA",6,"S","USMP-LIMA","LIMA","LIMA","SL06","LIMA","LIMA","SURQUILLO",-12.1052364,-77.0177466,"AUTORIZADO POR LIC.","PERIODISMO (VIRTUAL: SEMIPRESENCIAL)","POSGRADO","DOCTORADO",32,"PERIODISMO E INFORMACIÓN","RECONOCIDO POR LIC.","RECONOCIDO POR LIC."
"164","052A","UNIVERSIDAD CÉSAR VALLEJO S.A.C.","PRIVADO","LICENCIA OTORGADA",6,"F03","UPCV-SAN MARTÍN","SAN MARTÍN","SAN MARTÍN","F03L02","SAN MARTÍN","SAN MARTÍN","TARAPOTO",-6.4888233,-76.3616983,"AUTORIZADO POR LIC.","ADMINISTRACIÓN EN TURISMO Y HOTELERÍA","PREGRADO","CARRERA PROFESIONAL",1,"SERVICIOS PERSONALES","RECONOCIDO POR LIC.","RECONOCIDO POR LIC."
"165","004","UNIVERSIDAD NACIONAL DE TRUJILLO","PÚBLICO","LICENCIA OTORGADA",8,"S","UNT-LA LIBERTAD","LA LIBERTAD","TRUJILLO","SL01","LA LIBERTAD","TRUJILLO","TRUJILLO",-8.1142716,-79.0383735,"AUTORIZADO POR LIC.","INGENIERÍA DE SISTEMAS","PREGRADO","CARRERA PROFESIONAL",61,"INFORMÁTICA","RECONOCIDO POR LIC.","RECONOCIDO POR LIC."
"166","015","UNIVERSIDAD CATÓLICA DE SANTA MARÍA","PRIVADO","LICENCIA OTORGADA",6,"S","UCSM-AREQUIPA","AREQUIPA","AREQUIPA","SL01","AREQUIPA","AREQUIPA","AREQUIPA",-16.4061786,-71.5476298,"AUTORIZADO POR LIC.","DERECHO","PREGRADO","CARRERA PROFESIONAL",42,"DERECHO","RECONOCIDO POR LIC.","RECONOCIDO POR LIC."
"167","052A","UNIVERSIDAD CÉSAR VALLEJO S.A.C.","PRIVADO","LICENCIA OTORGADA",6,"F05","UPCV-LIMA","LIMA","LIMA","F05L02","LIMA","LIMA","SAN JUAN DE LURIGANCHO",-11.9814929,-77.0001665,"AUTORIZADO POR LIC.","ARQUITECTURA","PREGRADO","CARRERA PROFESIONAL",73,"ARQUITECTURA Y CONSTRUCCIÓN","RECONOCIDO POR LIC.","RECONOCIDO POR LIC."
"168","052A","UNIVERSIDAD CÉSAR VALLEJO S.A.C.","PRIVADO","LICENCIA OTORGADA",6,"S","UPCV-LA LIBERTAD","LA LIBERTAD","TRUJILLO","SL01","LA LIBERTAD","TRUJILLO","VICTOR LARCO HERRERA",-8.1293904,-79.0433213,"AUTORIZADO POR LIC.","MAESTRÍA EN EDUCACIÓN INFANTIL Y NEUROEDUCACIÓN","POSGRADO","MAESTRÍA",11,"EDUCACIÓN INICIAL Y PRIMARIA","RECONOCIDO POR LIC.","RECONOCIDO POR LIC."
"169","011","UNIVERSIDAD NACIONAL DE LA AMAZONÍA PERUANA","PÚBLICO","LICENCIA OTORGADA",8,"S","UNAP-LORETO","LORETO","MAYNAS","SL10","LORETO","MAYNAS","PUNCHANA",-3.721747914,-73.25867081,"AUTORIZADO POR LIC.","SEGUNDA ESPECIALIDAD PROFESIONAL EN MEDICINA HUMANA VÍA RESIDENTADO MÉDICO CON MENCIÓN EN ORTOPEDIA Y TRAUMATOLOGÍA","POSGRADO","SEGUNDA ESPECIALIDAD",0,"NINGUNO","RECONOCIDO POR LIC.","RECONOCIDO POR LIC."
"170","014","UNIVERSIDAD PERUANA CAYETANO HEREDIA","PRIVADO","LICENCIA OTORGADA",10,"S","UPCH-LIMA","LIMA","LIMA","SL03","LIMA","LIMA","SAN ISIDRO",-12.091066,-77.052041,"AUTORIZADO POR LIC.","PROGRAMA DE SEGUNDA ESPECIALIDAD PROFESIONAL EN RADIOLOGÍA","POSGRADO","SEGUNDA ESPECIALIDAD",91,"SALUD","RECONOCIDO POR LIC.","RECONOCIDO POR LIC."
"171","055","UNIVERSIDAD PRIVADA DEL NORTE S.A.C.","PRIVADO","LICENCIA OTORGADA",6,"S","UPN-LA LIBERTAD","LA LIBERTAD","TRUJILLO","SL02","LA LIBERTAD","TRUJILLO","TRUJILLO",-8.1002352,-79.0194531,"AUTORIZADO POR LIC.","MAESTRÍA EN DIRECCIÓN Y GESTIÓN DEL TALENTO HUMANO","POSGRADO","MAESTRÍA",41,"ADMINISTRACIÓN Y COMERCIO","RECONOCIDO POR LIC.","RECONOCIDO POR LIC."
"172","065","UNIVERSIDAD TECNOLÓGICA DEL PERÚ S.A.C.","PRIVADO","LICENCIA OTORGADA",6,"S","UTP-LIMA","LIMA","LIMA","SL04","LIMA","LIMA","LIMA",-12.0704665,-77.0367812,"AUTORIZADO POR LIC.","INGENIERÍA MECATRÓNICA","PREGRADO","CARRERA PROFESIONAL",71,"INGENIERÍA Y PROFESIONES AFINES","RECONOCIDO POR LIC.","RECONOCIDO POR LIC."
"173","035","UNIVERSIDAD NACIONAL DE UCAYALI","PÚBLICO","LICENCIA OTORGADA",6,"S","UNU-UCAYALI","UCAYALI","CORONEL PORTILLO","SL01","UCAYALI","CORONEL PORTILLO","CALLERIA",-8.3948987,-74.5776093,"AUTORIZADO POR LIC.","PROGRAMA DE SEGUNDA ESPECIALIDAD EN ENFERMERÍA, CON MENCIÓN EN: CUIDADOS NEFROLÓGICOS","POSGRADO","SEGUNDA ESPECIALIDAD",0,"NINGUNO","RECONOCIDO POR LIC.","RECONOCIDO POR LIC."
"174","015","UNIVERSIDAD CATÓLICA DE SANTA MARÍA","PRIVADO","LICENCIA OTORGADA",6,"S","UCSM-AREQUIPA","AREQUIPA","AREQUIPA","SL02","AREQUIPA","AREQUIPA","AREQUIPA",-16.4048982,-71.5498378,"AUTORIZADO POR LIC.","DOCTORADO EN INGENIERÍA INDUSTRIAL","POSGRADO","DOCTORADO",72,"INDUSTRIA Y PRODUCCIÓN","RECONOCIDO POR LIC.","RECONOCIDO POR LIC."
"175","012","UNIVERSIDAD NACIONAL DEL ALTIPLANO","PÚBLICO","LICENCIA OTORGADA",6,"S","UNA-PUNO","PUNO","PUNO","SL01","PUNO","PUNO","PUNO",-15.8243805,-70.0162544,"AUTORIZADO POR LIC.","ANTROPOLOGÍA","PREGRADO","CARRERA PROFESIONAL",22,"HUMANIDADES","RECONOCIDO POR LIC.","RECONOCIDO POR LIC."
"176","055","UNIVERSIDAD PRIVADA DEL NORTE S.A.C.","PRIVADO","LICENCIA OTORGADA",6,"S","UPN-LA LIBERTAD","LA LIBERTAD","TRUJILLO","SL02","LA LIBERTAD","TRUJILLO","TRUJILLO",-8.1002352,-79.0194531,"AUTORIZADO POR LIC.","ADMINISTRACIÓN Y NEGOCIOS INTERNACIONALES","PREGRADO","CARRERA PROFESIONAL",41,"ADMINISTRACIÓN Y COMERCIO","RECONOCIDO POR LIC.","RECONOCIDO POR LIC."
"177","068","UNIVERSIDAD CIENTÍFICA DEL SUR S.A.C.","PRIVADO","LICENCIA OTORGADA",6,"S","UCS-LIMA","LIMA","LIMA","SL02","LIMA","LIMA","VILLA EL SALVADOR",-12.2215281,-76.9766998,"AUTORIZADO POR LIC.","MARKETING Y ADMINISTRACIÓN","PREGRADO","CARRERA PROFESIONAL",41,"ADMINISTRACIÓN Y COMERCIO","RECONOCIDO POR LIC.","RECONOCIDO POR LIC."
"178","001","UNIVERSIDAD NACIONAL MAYOR DE SAN MARCOS","PÚBLICO","LICENCIA OTORGADA",10,"S","UNMSM-LIMA","LIMA","LIMA","SL02","LIMA","LIMA","LA VICTORIA",-12.0579394,-77.0229596,"AUTORIZADO POR LIC.","ENFERMERÍA EN SALUD MENTAL Y PSIQUIATRÍA","POSGRADO","SEGUNDA ESPECIALIDAD",91,"SALUD","RECONOCIDO POR LIC.","RECONOCIDO POR LIC."
"179","014","UNIVERSIDAD PERUANA CAYETANO HEREDIA","PRIVADO","LICENCIA OTORGADA",10,"S","UPCH-LIMA","LIMA","LIMA","SL01","LIMA","LIMA","SAN MARTÍN DE PORRES",-12.0239471,-77.0564991,"AUTORIZADO POR LIC.","CARRERA PROFESIONAL DE FARMACIA Y BIOQUÍMICA","PREGRADO","CARRERA PROFESIONAL",91,"SALUD","RECONOCIDO POR LIC.","RECONOCIDO POR LIC."
"180","052A","UNIVERSIDAD CÉSAR VALLEJO S.A.C.","PRIVADO","LICENCIA OTORGADA",6,"F01","UPCV-PIURA","PIURA","PIURA","F01L01","PIURA","PIURA","VEINTISEIS DE OCTUBRE",-5.168798939,-80.65734342,"AUTORIZADO POR LIC.","CONTABILIDAD","PREGRADO","CARRERA PROFESIONAL",41,"ADMINISTRACIÓN Y COMERCIO","RECONOCIDO POR LIC.","RECONOCIDO POR LIC."
"181","007","UNIVERSIDAD NACIONAL AGRARIA LA MOLINA","PÚBLICO","LICENCIA OTORGADA",8,"S","UNALM-LIMA","LIMA","LIMA","SL01","LIMA","LIMA","LA MOLINA",-12.0817493,-76.9431895,"AUTORIZADO POR LIC.","ESTADÍSTICA INFORMÁTICA","PREGRADO","CARRERA PROFESIONAL",54,"MATEMÁTICAS Y ESTADÍSTICA","RECONOCIDO POR LIC.","RECONOCIDO POR LIC."
"182","014","UNIVERSIDAD PERUANA CAYETANO HEREDIA","PRIVADO","LICENCIA OTORGADA",10,"S","UPCH-LIMA","LIMA","LIMA","SL03","LIMA","LIMA","SAN ISIDRO",-12.091066,-77.052041,"AUTORIZADO POR LIC.","MEDICINA FÍSICA Y DE REHABILITACIÓN","POSGRADO","SEGUNDA ESPECIALIDAD",0,"NINGUNO","RECONOCIDO POR LIC.","RECONOCIDO POR LIC."
"183","065","UNIVERSIDAD TECNOLÓGICA DEL PERÚ S.A.C.","PRIVADO","LICENCIA OTORGADA",6,"S","UTP-LIMA","LIMA","LIMA","SL07","LIMA","LIMA","SAN ISIDRO",-12.0905798,-77.0519189,"AUTORIZADO POR LIC.","MAESTRÍA EN MARKETING Y GESTIÓN COMERCIAL","POSGRADO","MAESTRÍA",41,"ADMINISTRACIÓN Y COMERCIO","RECONOCIDO POR LIC.","RECONOCIDO POR LIC."
"184","029","UNIVERSIDAD DE PIURA","PRIVADO","LICENCIA OTORGADA",8,"F01","UDEP-LIMA","LIMA","LIMA","F01L01","LIMA","LIMA","MIRAFLORES",-12.1199404,-77.030347,"AUTORIZADO POR LIC.","MAESTRÍA EN DIRECCIÓN DE PROYECTOS","POSGRADO","MAESTRÍA",41,"ADMINISTRACIÓN Y COMERCIO","RECONOCIDO POR LIC.","RECONOCIDO POR LIC."
"185","051","UNIVERSIDAD NACIONAL DE HUANCAVELICA","PÚBLICO","LICENCIA OTORGADA",6,"F02","UNH-HUANCAVELICA","HUANCAVELICA","TAYACAJA","F02L02","HUANCAVELICA","TAYACAJA","DANIEL HERNÁNDEZ",-12.3889985,-74.8588164,"AUTORIZADO POR LIC.","MAESTRÍA EN CIENCIAS DE INGENIERÍA; MENCIÓN EN GESTIÓN DE TECNOLOGÍA DE LA INFORMACIÓN Y COMUNICACIÓN","POSGRADO","MAESTRÍA",0,"NINGUNO","RECONOCIDO POR LIC.","RECONOCIDO POR LIC."
"186","003","UNIVERSIDAD NACIONAL DE SAN ANTONIO ABAD DEL CUSCO","PÚBLICO","LICENCIA OTORGADA",8,"F06","UNSAAC-APURÍMAC","APURÍMAC","ANDAHUAYLAS","F06L01","APURÍMAC","ANDAHUAYLAS","ANDAHUAYLAS",-13.6616515,-73.3767641,"AUTORIZADO POR LIC.","MAESTRÍA EN SALUD PÚBLICA MENCIÓN EPIDEMIOLOGÍA","POSGRADO","MAESTRÍA",0,"NINGUNO","RECONOCIDO POR LIC.","RECONOCIDO POR LIC."
"187","001","UNIVERSIDAD NACIONAL MAYOR DE SAN MARCOS","PÚBLICO","LICENCIA OTORGADA",10,"S","UNMSM-LIMA","LIMA","LIMA","SL01","LIMA","LIMA","LIMA",-12.0560257,-77.0844226,"AUTORIZADO POR LIC.","EDUCACIÓN CON MENCIÓN EN CURRICULUM Y SUPERVISIÓN","POSGRADO","SEGUNDA ESPECIALIDAD",13,"EDUCACIÓN SUPERIOR Y TECNOLÓGICA","RECONOCIDO POR LIC.","RECONOCIDO POR LIC."
"188","014","UNIVERSIDAD PERUANA CAYETANO HEREDIA","PRIVADO","LICENCIA OTORGADA",10,"S","UPCH-LIMA","LIMA","LIMA","SL02","LIMA","LIMA","LA MOLINA",-12.0695303,-76.9685595,"AUTORIZADO POR LIC.","PROGRAMA DE SEGUNDA ESPECIALIDAD PROFESIONAL EN GINECOLOGÍA ONCOLÓGICA","POSGRADO","SEGUNDA ESPECIALIDAD",91,"SALUD","RECONOCIDO POR LIC.","RECONOCIDO POR LIC."
"189","052A","UNIVERSIDAD CÉSAR VALLEJO S.A.C.","PRIVADO","LICENCIA OTORGADA",6,"S","UPCV-LA LIBERTAD","LA LIBERTAD","TRUJILLO","SL01","LA LIBERTAD","TRUJILLO","VICTOR LARCO HERRERA",-8.1293904,-79.0433213,"AUTORIZADO POR LIC.","DOCTORADO EN PSICOLOGÍA","POSGRADO","DOCTORADO",31,"CIENCIAS SOCIALES Y DEL COMPORTAMIENTO","RECONOCIDO POR LIC.","RECONOCIDO POR LIC."
"190","029","UNIVERSIDAD DE PIURA","PRIVADO","LICENCIA OTORGADA",8,"S","UDEP-PIURA","PIURA","PIURA","SL01","PIURA","PIURA","PIURA",-5.1766923,-80.6346434,"AUTORIZADO POR LIC.","MAESTRÍA EN MATRIMONIO Y FAMILIA","POSGRADO","MAESTRÍA",31,"CIENCIAS SOCIALES Y DEL COMPORTAMIENTO","RECONOCIDO POR LIC.","RECONOCIDO POR LIC."
"191","054","UNIVERSIDAD PERUANA DE CIENCIAS APLICADAS S.A.C.","PRIVADO","LICENCIA OTORGADA",6,"S","UPC-LIMA","LIMA","LIMA","SL01","LIMA","LIMA","SANTIAGO DE SURCO",-12.104061,-76.962902,"AUTORIZADO POR LIC.","COMUNICACIÓN E IMAGEN EMPRESARIAL","PREGRADO","CARRERA PROFESIONAL",32,"PERIODISMO E INFORMACIÓN","RECONOCIDO POR LIC.","RECONOCIDO POR LIC."
"192","019","UNIVERSIDAD DE SAN MARTÍN DE PORRES","PRIVADO","LICENCIA OTORGADA",6,"S","USMP-LIMA","LIMA","LIMA","SL01","LIMA","LIMA","SANTA ANITA",-12.045948,-76.9681914,"AUTORIZADO POR LIC.","CIENCIAS CONTABLES Y FINANCIERAS CON MENCIÓN EN FINANZAS E INVERSIONES INTERNACIONALES","POSGRADO","MAESTRÍA",41,"ADMINISTRACIÓN Y COMERCIO","RECONOCIDO POR LIC.","RECONOCIDO POR LIC."
"193","030","UNIVERSIDAD RICARDO PALMA","PRIVADO","LICENCIA OTORGADA",6,"S01","URP-LIMA","LIMA","LIMA","S01L01","LIMA","LIMA","SANTIAGO DE SURCO",-12.1318458,-76.9796463,"AUTORIZADO POR LIC.","MAESTRÍA EN ARQUITECTURA CON MENCIÓN EN GESTIÓN EMPRESARIAL","POSGRADO","MAESTRÍA",73,"ARQUITECTURA Y CONSTRUCCIÓN","RECONOCIDO POR LIC.","RECONOCIDO POR LIC."
"194","043","UNIVERSIDAD PRIVADA DE TACNA","PRIVADO","LICENCIA OTORGADA",6,"S","UPT-TACNA","TACNA","TACNA","SL06","TACNA","TACNA","TACNA",-18.0052752,-70.2351039,"AUTORIZADO POR LIC.","MAESTRÍA EN DERECHO CONSTITUCIONAL","POSGRADO","MAESTRÍA",42,"DERECHO","RECONOCIDO POR LIC.","RECONOCIDO POR LIC."
"195","007","UNIVERSIDAD NACIONAL AGRARIA LA MOLINA","PÚBLICO","LICENCIA OTORGADA",8,"S","UNALM-LIMA","LIMA","LIMA","SL01","LIMA","LIMA","LA MOLINA",-12.0817493,-76.9431895,"AUTORIZADO POR LIC.","ESTADÍSTICA APLICADA","POSGRADO","MAESTRÍA",54,"MATEMÁTICAS Y ESTADÍSTICA","RECONOCIDO POR LIC.","RECONOCIDO POR LIC."
"196","001","UNIVERSIDAD NACIONAL MAYOR DE SAN MARCOS","PÚBLICO","LICENCIA OTORGADA",10,"S","UNMSM-LIMA","LIMA","LIMA","SL02","LIMA","LIMA","LA VICTORIA",-12.0579394,-77.0229596,"AUTORIZADO POR LIC.","GERENCIA DE SERVICIOS DE SALUD","POSGRADO","MAESTRÍA",41,"ADMINISTRACIÓN Y COMERCIO","RECONOCIDO POR LIC.","RECONOCIDO POR LIC."
"197","065","UNIVERSIDAD TECNOLÓGICA DEL PERÚ S.A.C.","PRIVADO","LICENCIA OTORGADA",6,"S","UTP-LIMA","LIMA","LIMA","SL04","LIMA","LIMA","LIMA",-12.0704665,-77.0367812,"AUTORIZADO POR LIC.","ENFERMERÍA","PREGRADO","CARRERA PROFESIONAL",91,"SALUD","RECONOCIDO POR LIC.","RECONOCIDO POR LIC."
"198","004","UNIVERSIDAD NACIONAL DE TRUJILLO","PÚBLICO","LICENCIA OTORGADA",8,"S","UNT-LA LIBERTAD","LA LIBERTAD","TRUJILLO","SL01","LA LIBERTAD","TRUJILLO","TRUJILLO",-8.1142716,-79.0383735,"AUTORIZADO POR LIC.","MAESTRÍA EN DERECHO CON MENCIÓN EN DERECHO PENAL Y PROCESAL PENAL","POSGRADO","MAESTRÍA",42,"DERECHO","RECONOCIDO POR LIC.","RECONOCIDO POR LIC."
"199","071","UNIVERSIDAD CATÓLICA SEDES SAPIENTIAE","PRIVADO","LICENCIA OTORGADA",6,"S","UCSS-LIMA","LIMA","LIMA","SL01","LIMA","LIMA","LOS OLIVOS",-12.0001412,-77.0639086,"AUTORIZADO POR LIC.","EDUCACIÓN INICIAL","PREGRADO","CARRERA PROFESIONAL",11,"EDUCACIÓN INICIAL Y PRIMARIA","RECONOCIDO POR LIC.","RECONOCIDO POR LIC."
"200","001","UNIVERSIDAD NACIONAL MAYOR DE SAN MARCOS","PÚBLICO","LICENCIA OTORGADA",10,"S","UNMSM-LIMA","LIMA","LIMA","SL05","LIMA","LIMA","SAN BORJA",-12.0811453,-76.9874827,"AUTORIZADO POR LIC.","ANIMALES DE COMPAÑÍA","POSGRADO","SEGUNDA ESPECIALIDAD",84,"VETERINARIA","RECONOCIDO POR LIC.","RECONOCIDO POR LIC."
"201","043","UNIVERSIDAD PRIVADA DE TACNA","PRIVADO","LICENCIA OTORGADA",6,"S","UPT-TACNA","TACNA","TACNA","SL01","TACNA","TACNA","POCOLLAY",-18.0058389,-70.2254838,"AUTORIZADO POR LIC.","SEGUNDA ESPECIALIDAD EN ESTIMULACIÓN TEMPRANA","POSGRADO","SEGUNDA ESPECIALIDAD",11,"EDUCACIÓN INICIAL Y PRIMARIA","RECONOCIDO POR LIC.","RECONOCIDO POR LIC."
"202","055","UNIVERSIDAD PRIVADA DEL NORTE S.A.C.","PRIVADO","LICENCIA OTORGADA",6,"F02","UPN-LIMA","LIMA","LIMA","F02L04","LIMA","LIMA","SAN JUAN DE LURIGANCHO",-11.9841504,-77.0024242,"AUTORIZADO POR LIC.","DERECHO","PREGRADO","CARRERA PROFESIONAL",42,"DERECHO","RECONOCIDO POR LIC.","RECONOCIDO POR LIC."
"203","007","UNIVERSIDAD NACIONAL AGRARIA LA MOLINA","PÚBLICO","LICENCIA OTORGADA",8,"S","UNALM-LIMA","LIMA","LIMA","SL01","LIMA","LIMA","LA MOLINA",-12.0817493,-76.9431895,"AUTORIZADO POR LIC.","PRODUCCIÓN AGRÍCOLA","POSGRADO","MAESTRÍA",81,"AGRICULTURA","RECONOCIDO POR LIC.","RECONOCIDO POR LIC."
"204","068","UNIVERSIDAD CIENTÍFICA DEL SUR S.A.C.","PRIVADO","LICENCIA OTORGADA",6,"S","UCS-LIMA","LIMA","LIMA","SL02","LIMA","LIMA","VILLA EL SALVADOR",-12.2215281,-76.9766998,"AUTORIZADO POR LIC.","NUTRICIÓN Y DIETÉTICA","PREGRADO","CARRERA PROFESIONAL",91,"SALUD","RECONOCIDO POR LIC.","RECONOCIDO POR LIC."
"205","005","UNIVERSIDAD NACIONAL DE SAN AGUSTÍN DE AREQUIPA","PÚBLICO","LICENCIA OTORGADA",10,"S","UNSA-AREQUIPA","AREQUIPA","AREQUIPA","SL01","AREQUIPA","AREQUIPA","AREQUIPA",-16.4027681,-71.5255001,"AUTORIZADO POR LIC.","INGENIERÍA DE RECURSOS HUMANOS","POSGRADO","SEGUNDA ESPECIALIDAD",41,"ADMINISTRACIÓN Y COMERCIO","RECONOCIDO POR LIC.","RECONOCIDO POR LIC."
"206","011","UNIVERSIDAD NACIONAL DE LA AMAZONÍA PERUANA","PÚBLICO","LICENCIA OTORGADA",8,"S","UNAP-LORETO","LORETO","MAYNAS","SL01","LORETO","MAYNAS","SAN JUAN BAUTISTA",-3.764503718,-73.27086457,"AUTORIZADO POR LIC.","CIENCIAS BIOLÓGICAS","PREGRADO","CARRERA PROFESIONAL",51,"CIENCIAS BIOLÓGICAS Y AFINES","RECONOCIDO POR LIC.","RECONOCIDO POR LIC."
"207","015","UNIVERSIDAD CATÓLICA DE SANTA MARÍA","PRIVADO","LICENCIA OTORGADA",6,"S","UCSM-AREQUIPA","AREQUIPA","AREQUIPA","SL02","AREQUIPA","AREQUIPA","AREQUIPA",-16.4048982,-71.5498378,"AUTORIZADO POR LIC.","MAESTRÍA EN OSTEOPATÍA","POSGRADO","MAESTRÍA",91,"SALUD","RECONOCIDO POR LIC.","RECONOCIDO POR LIC."
"208","011","UNIVERSIDAD NACIONAL DE LA AMAZONÍA PERUANA","PÚBLICO","LICENCIA OTORGADA",8,"S","UNAP-LORETO","LORETO","MAYNAS","SL04","LORETO","MAYNAS","SAN JUAN BAUTISTA",-3.7753954,-73.2897258,"AUTORIZADO POR LIC.","MAESTRÍAS EN GESTIÓN ALIMENTARIA CON MENCIÓN EN NUTRICIÓN","POSGRADO","MAESTRÍA",91,"SALUD","RECONOCIDO POR LIC.","RECONOCIDO POR LIC."
"209","010","UNIVERSIDAD NACIONAL DEL CENTRO DEL PERÚ","PÚBLICO","LICENCIA OTORGADA",6,"S","UNCP-JUNÍN","JUNÍN","HUANCAYO","SL01","JUNÍN","HUANCAYO","EL TAMBO",-12.0330464,-75.237332,"AUTORIZADO POR LIC.","MAESTRÍA EN ANTROPOLOGÍA JURÍDICA","POSGRADO","MAESTRÍA",22,"HUMANIDADES","RECONOCIDO POR LIC.","RECONOCIDO POR LIC."
"210","004","UNIVERSIDAD NACIONAL DE TRUJILLO","PÚBLICO","LICENCIA OTORGADA",8,"S","UNT-LA LIBERTAD","LA LIBERTAD","TRUJILLO","SL01","LA LIBERTAD","TRUJILLO","TRUJILLO",-8.1142716,-79.0383735,"AUTORIZADO POR LIC.","SEGUNDA ESPECIALIDAD PROFESIONAL EN CUIDADO DEL NEONATO EN TERAPIA INTENSIVA","POSGRADO","SEGUNDA ESPECIALIDAD",0,"NINGUNO","RECONOCIDO POR LIC.","RECONOCIDO POR LIC."
"211","001","UNIVERSIDAD NACIONAL MAYOR DE SAN MARCOS","PÚBLICO","LICENCIA OTORGADA",10,"S","UNMSM-LIMA","LIMA","LIMA","SL02","LIMA","LIMA","LA VICTORIA",-12.0579394,-77.0229596,"AUTORIZADO POR LIC.","SALUD SEXUAL Y REPRODUCTIVA","POSGRADO","MAESTRÍA",2,"SERVICIOS DE HIGIENE Y SALUD OCUPACIONAL","RECONOCIDO POR LIC.","RECONOCIDO POR LIC."
"212","004","UNIVERSIDAD NACIONAL DE TRUJILLO","PÚBLICO","LICENCIA OTORGADA",8,"S","UNT-LA LIBERTAD","LA LIBERTAD","TRUJILLO","SL01","LA LIBERTAD","TRUJILLO","TRUJILLO",-8.1142716,-79.0383735,"AUTORIZADO POR LIC.","MAESTRÍA EN FARMACIA Y BIOQUÍMICA, MENCIÓN: FARMACIA CLÍNICA","POSGRADO","MAESTRÍA",91,"SALUD","RECONOCIDO POR LIC.","RECONOCIDO POR LIC."
"213","001","UNIVERSIDAD NACIONAL MAYOR DE SAN MARCOS","PÚBLICO","LICENCIA OTORGADA",10,"S","UNMSM-LIMA","LIMA","LIMA","SL01","LIMA","LIMA","LIMA",-12.0560257,-77.0844226,"AUTORIZADO POR LIC.","EDUCACIÓN","PREGRADO","CARRERA PROFESIONAL",19,"OTROS PROGRAMAS EN EDUCACIÓN","RECONOCIDO POR LIC.","RECONOCIDO POR LIC."
"214","005","UNIVERSIDAD NACIONAL DE SAN AGUSTÍN DE AREQUIPA","PÚBLICO","LICENCIA OTORGADA",10,"S","UNSA-AREQUIPA","AREQUIPA","AREQUIPA","SL02","AREQUIPA","AREQUIPA","AREQUIPA",-16.4086078,-71.5285764,"AUTORIZADO POR LIC.","ECONOMÍA","PREGRADO","CARRERA PROFESIONAL",31,"CIENCIAS SOCIALES Y DEL COMPORTAMIENTO","RECONOCIDO POR LIC.","RECONOCIDO POR LIC."
"215","008","PONTIFICIA UNIVERSIDAD CATÓLICA DEL PERÚ","PRIVADO","LICENCIA OTORGADA",10,"S","PUCP-LIMA","LIMA","LIMA","SL01","LIMA","LIMA","SAN MIGUEL",-12.0693438,-77.080122,"AUTORIZADO POR LIC.","PSICOLOGÍA CON MENCIÓN EN EVALUACIÓN CLÍNICA","POSGRADO","MAESTRÍA",31,"CIENCIAS SOCIALES Y DEL COMPORTAMIENTO","RECONOCIDO POR LIC.","RECONOCIDO POR LIC."
"216","019","UNIVERSIDAD DE SAN MARTÍN DE PORRES","PRIVADO","LICENCIA OTORGADA",6,"S","USMP-LIMA","LIMA","LIMA","SL02","LIMA","LIMA","LA MOLINA",-12.0726398,-76.9429901,"AUTORIZADO POR LIC.","INGENIERÍA INDUSTRIAL","PREGRADO","CARRERA PROFESIONAL",72,"INDUSTRIA Y PRODUCCIÓN","RECONOCIDO POR LIC.","RECONOCIDO POR LIC."
"217","004","UNIVERSIDAD NACIONAL DE TRUJILLO","PÚBLICO","LICENCIA OTORGADA",8,"S","UNT-LA LIBERTAD","LA LIBERTAD","TRUJILLO","SL01","LA LIBERTAD","TRUJILLO","TRUJILLO",-8.1142716,-79.0383735,"AUTORIZADO POR LIC.","MAESTRÍA EN CIENCIAS SOCIALES, MENCIÓN: GESTIÓN DEL PATRIMONIO CULTURAL","POSGRADO","MAESTRÍA",31,"CIENCIAS SOCIALES Y DEL COMPORTAMIENTO","RECONOCIDO POR LIC.","RECONOCIDO POR LIC."
"218","007","UNIVERSIDAD NACIONAL AGRARIA LA MOLINA","PÚBLICO","LICENCIA OTORGADA",8,"S","UNALM-LIMA","LIMA","LIMA","SL01","LIMA","LIMA","LA MOLINA",-12.0817493,-76.9431895,"AUTORIZADO POR LIC.","GESTIÓN INTEGRAL DE CUENCAS HIDROGRÁFICAS","POSGRADO","MAESTRÍA",52,"MEDIO AMBIENTE","RECONOCIDO POR LIC.","RECONOCIDO POR LIC."
"219","012","UNIVERSIDAD NACIONAL DEL ALTIPLANO","PÚBLICO","LICENCIA OTORGADA",6,"S","UNA-PUNO","PUNO","PUNO","SL01","PUNO","PUNO","PUNO",-15.8243805,-70.0162544,"AUTORIZADO POR LIC.","MEDICINA VETERINARIA Y ZOOTECNIA","PREGRADO","CARRERA PROFESIONAL",84,"VETERINARIA","RECONOCIDO POR LIC.","RECONOCIDO POR LIC."
"220","068","UNIVERSIDAD CIENTÍFICA DEL SUR S.A.C.","PRIVADO","LICENCIA OTORGADA",6,"S","UCS-LIMA","LIMA","LIMA","SL03","LIMA","LIMA","MIRAFLORES",-12.1211435,-77.0256582,"AUTORIZADO POR LIC.","MAESTRÍA EN PROYECTOS DE ARQUITECTURA Y URBANISMO","POSGRADO","MAESTRÍA",73,"ARQUITECTURA Y CONSTRUCCIÓN","RECONOCIDO POR LIC.","RECONOCIDO POR LIC."
"221","057","UNIVERSIDAD SAN IGNACIO DE LOYOLA S.A.","PRIVADO","LICENCIA OTORGADA",6,"S","USIL-LIMA","LIMA","LIMA","SL01","LIMA","LIMA","LA MOLINA",-12.072888,-76.9516609,"AUTORIZADO POR LIC.","EDUCACIÓN SECUNDARIA CON ESPECIALIDAD EN CIENCIAS SOCIALES","PREGRADO","CARRERA PROFESIONAL",12,"EDUCACIÓN SECUNDARIA","RECONOCIDO POR LIC.","RECONOCIDO POR LIC."
"222","071","UNIVERSIDAD CATÓLICA SEDES SAPIENTIAE","PRIVADO","LICENCIA OTORGADA",6,"S","UCSS-LIMA","LIMA","LIMA","SL01","LIMA","LIMA","LOS OLIVOS",-12.0001412,-77.0639086,"AUTORIZADO POR LIC.","EDUCACIÓN SECUNDARIA: LENGUA INGLESA","PREGRADO","CARRERA PROFESIONAL",12,"EDUCACIÓN SECUNDARIA","RECONOCIDO POR LIC.","RECONOCIDO POR LIC."
"223","029","UNIVERSIDAD DE PIURA","PRIVADO","LICENCIA OTORGADA",8,"F01","UDEP-LIMA","LIMA","LIMA","F01L01","LIMA","LIMA","MIRAFLORES",-12.1199404,-77.030347,"AUTORIZADO POR LIC.","DERECHO","PREGRADO","CARRERA PROFESIONAL",42,"DERECHO","RECONOCIDO POR LIC.","RECONOCIDO POR LIC."
"224","052A","UNIVERSIDAD CÉSAR VALLEJO S.A.C.","PRIVADO","LICENCIA OTORGADA",6,"F05","UPCV-LIMA","LIMA","LIMA","F05L02","LIMA","LIMA","SAN JUAN DE LURIGANCHO",-11.9814929,-77.0001665,"AUTORIZADO POR LIC.","INGENIERÍA DE SISTEMAS","PREGRADO","CARRERA PROFESIONAL",61,"INFORMÁTICA","RECONOCIDO POR LIC.","RECONOCIDO POR LIC."
"225","074A","ASOCIACIÓN CIVIL UNIVERSIDAD CATÓLICA DE TRUJILLO BENEDICTO XVI","PRIVADO","LICENCIA OTORGADA",6,"S","UCT-LA LIBERTAD","LA LIBERTAD","TRUJILLO","SL01","LA LIBERTAD","TRUJILLO","MOCHE",-8.1602468,-79.0111745,"AUTORIZADO POR LIC.","INGENIERÍA MECÁNICO ELÉCTRICA","PREGRADO","CARRERA PROFESIONAL",71,"INGENIERÍA Y PROFESIONES AFINES","RECONOCIDO POR LIC.","RECONOCIDO POR LIC."
"226","052A","UNIVERSIDAD CÉSAR VALLEJO S.A.C.","PRIVADO","LICENCIA OTORGADA",6,"S","UPCV-LA LIBERTAD","LA LIBERTAD","TRUJILLO","SL01","LA LIBERTAD","TRUJILLO","VICTOR LARCO HERRERA",-8.1293904,-79.0433213,"AUTORIZADO POR LIC.","SEGUNDA ESPECIALIDAD EN NEONATOLOGÍA","POSGRADO","SEGUNDA ESPECIALIDAD",91,"SALUD","RECONOCIDO POR LIC.","RECONOCIDO POR LIC."
"227","054","UNIVERSIDAD PERUANA DE CIENCIAS APLICADAS S.A.C.","PRIVADO","LICENCIA OTORGADA",6,"S","UPC-LIMA","LIMA","LIMA","SL07","LIMA","LIMA","SAN MIGUEL",-12.0810086,-77.0707359,"AUTORIZADO POR LIC.","GESTIÓN DE INDUSTRIAS CREATIVAS","PREGRADO","CARRERA PROFESIONAL",41,"ADMINISTRACIÓN Y COMERCIO","RECONOCIDO POR LIC.","RECONOCIDO POR LIC."
"228","035","UNIVERSIDAD NACIONAL DE UCAYALI","PÚBLICO","LICENCIA OTORGADA",6,"S","UNU-UCAYALI","UCAYALI","CORONEL PORTILLO","SL01","UCAYALI","CORONEL PORTILLO","CALLERIA",-8.3948987,-74.5776093,"AUTORIZADO POR LIC.","PROGRAMA DE SEGUNDA ESPECIALIDAD DE ENFERMERÍA, CON MENCIÓN EN: CUIDADO DE ENFERMERÍA EN EL CRECIMIENTO Y DESARROLLO INFANTIL","POSGRADO","SEGUNDA ESPECIALIDAD",0,"NINGUNO","RECONOCIDO POR LIC.","RECONOCIDO POR LIC."
"229","055","UNIVERSIDAD PRIVADA DEL NORTE S.A.C.","PRIVADO","LICENCIA OTORGADA",6,"F02","UPN-LIMA","LIMA","LIMA","F02L03","LIMA","LIMA","LOS OLIVOS",-11.9659256,-77.0682846,"AUTORIZADO POR LIC.","ARQUITECTURA Y URBANISMO","PREGRADO","CARRERA PROFESIONAL",73,"ARQUITECTURA Y CONSTRUCCIÓN","RECONOCIDO POR LIC.","RECONOCIDO POR LIC."
"230","026","UNIVERSIDAD NACIONAL DANIEL ALCIDES CARRIÓN","PÚBLICO","LICENCIA OTORGADA",6,"S","UNDAC-PASCO","PASCO","PASCO","SL01","PASCO","PASCO","YANACANCHA",-10.6683864,-76.2527205,"AUTORIZADO POR LIC.","MAESTRÍA EN DERECHO AMBIENTAL","POSGRADO","MAESTRÍA",42,"DERECHO","RECONOCIDO POR LIC.","RECONOCIDO POR LIC."
"231","076","UNIVERSIDAD NACIONAL TORIBIO RODRÍGUEZ DE MENDOZA DE AMAZONAS","PÚBLICO","LICENCIA OTORGADA",6,"S","UNTRMA-AMAZONAS","AMAZONAS","CHACHAPOYAS","SL01","AMAZONAS","CHACHAPOYAS","CHACHAPOYAS",-6.2335409,-77.8531651,"AUTORIZADO POR LIC.","EDUCACIÓN PRIMARIA","PREGRADO","CARRERA PROFESIONAL",11,"EDUCACIÓN INICIAL Y PRIMARIA","RECONOCIDO POR LIC.","RECONOCIDO POR LIC."
"232","055","UNIVERSIDAD PRIVADA DEL NORTE S.A.C.","PRIVADO","LICENCIA OTORGADA",6,"F02","UPN-LIMA","LIMA","LIMA","F02L03","LIMA","LIMA","LOS OLIVOS",-11.9659256,-77.0682846,"AUTORIZADO POR LIC.","INGENIERÍA MECATRÓNICA","PREGRADO","CARRERA PROFESIONAL",71,"INGENIERÍA Y PROFESIONES AFINES","RECONOCIDO POR LIC.","RECONOCIDO POR LIC."
"233","065","UNIVERSIDAD TECNOLÓGICA DEL PERÚ S.A.C.","PRIVADO","LICENCIA OTORGADA",6,"S","UTP-LIMA","LIMA","LIMA","SL15","LIMA","LIMA","SAN JUAN DE LURIGANCHO",-11.9853984,-77.0042599,"AUTORIZADO POR LIC.","CONTABILIDAD FINANCIERA","PREGRADO","CARRERA PROFESIONAL",41,"ADMINISTRACIÓN Y COMERCIO","RECONOCIDO POR LIC.","RECONOCIDO POR LIC."
"234","065","UNIVERSIDAD TECNOLÓGICA DEL PERÚ S.A.C.","PRIVADO","LICENCIA OTORGADA",6,"S","UTP-LIMA","LIMA","LIMA","SL06","LIMA","LIMA","LOS OLIVOS",-11.95300714,-77.07018351,"AUTORIZADO POR LIC.","INGENIERÍA MECÁNICA","PREGRADO","CARRERA PROFESIONAL",71,"INGENIERÍA Y PROFESIONES AFINES","RECONOCIDO POR LIC.","RECONOCIDO POR LIC."
"235","019","UNIVERSIDAD DE SAN MARTÍN DE PORRES","PRIVADO","LICENCIA OTORGADA",6,"S","USMP-LIMA","LIMA","LIMA","SL02","LIMA","LIMA","LA MOLINA",-12.0726398,-76.9429901,"AUTORIZADO POR LIC.","INGENIERÍA DE SISTEMAS DE INFORMACIÓN","POSGRADO","DOCTORADO",61,"INFORMÁTICA","RECONOCIDO POR LIC.","RECONOCIDO POR LIC."
"236","065","UNIVERSIDAD TECNOLÓGICA DEL PERÚ S.A.C.","PRIVADO","LICENCIA OTORGADA",6,"F03","UTP-PIURA","PIURA","PIURA","F03L01","PIURA","PIURA","PIURA",-5.1851293,-80.6421152,"AUTORIZADO POR LIC.","CONTABILIDAD FINANCIERA","PREGRADO","CARRERA PROFESIONAL",41,"ADMINISTRACIÓN Y COMERCIO","RECONOCIDO POR LIC.","RECONOCIDO POR LIC."
"237","052A","UNIVERSIDAD CÉSAR VALLEJO S.A.C.","PRIVADO","LICENCIA OTORGADA",6,"F09","UPCV-CALLAO","CALLAO","PROV. CONST. DEL CALLAO","F09L01","CALLAO","PROV. CONST. DEL CALLAO","CALLAO",-12.050378,-77.1234613,"AUTORIZADO POR LIC.","ADMINISTRACIÓN","PREGRADO","CARRERA PROFESIONAL",41,"ADMINISTRACIÓN Y COMERCIO","RECONOCIDO POR LIC.","RECONOCIDO POR LIC."
"238","074A","ASOCIACIÓN CIVIL UNIVERSIDAD CATÓLICA DE TRUJILLO BENEDICTO XVI","PRIVADO","LICENCIA OTORGADA",6,"S","UCT-LA LIBERTAD","LA LIBERTAD","TRUJILLO","SL03","LA LIBERTAD","TRUJILLO","TRUJILLO",-8.1016825,-79.041817,"AUTORIZADO POR LIC.","MAESTRÍA EN GESTIÓN DEL TALENTO HUMANO","POSGRADO","MAESTRÍA",41,"ADMINISTRACIÓN Y COMERCIO","RECONOCIDO POR LIC.","RECONOCIDO POR LIC."
"239","065","UNIVERSIDAD TECNOLÓGICA DEL PERÚ S.A.C.","PRIVADO","LICENCIA OTORGADA",6,"S","UTP-LIMA","LIMA","LIMA","SL09","LIMA","LIMA","SAN JUAN DE LURIGANCHO",-11.98329601,-77.00953028,"AUTORIZADO POR LIC.","ARQUITECTURA","PREGRADO","CARRERA PROFESIONAL",73,"ARQUITECTURA Y CONSTRUCCIÓN","RECONOCIDO POR LIC.","RECONOCIDO POR LIC."
"240","014","UNIVERSIDAD PERUANA CAYETANO HEREDIA","PRIVADO","LICENCIA OTORGADA",10,"S","UPCH-LIMA","LIMA","LIMA","SL03","LIMA","LIMA","SAN ISIDRO",-12.091066,-77.052041,"AUTORIZADO POR LIC.","PROGRAMA DE SEGUNDA ESPECIALIDAD PROFESIONAL EN OFTALMOLOGÍA ONCOLÓGICA","POSGRADO","SEGUNDA ESPECIALIDAD",91,"SALUD","RECONOCIDO POR LIC.","RECONOCIDO POR LIC."
"241","014","UNIVERSIDAD PERUANA CAYETANO HEREDIA","PRIVADO","LICENCIA OTORGADA",10,"S","UPCH-LIMA","LIMA","LIMA","SL04","LIMA","LIMA","MIRAFLORES",-12.13402606,-77.02627908,"AUTORIZADO POR LIC.","PROGRAMA DE SEGUNDA ESPECIALIDAD PROFESIONAL EN ENFERMERÍA ONCOLÓGICA","POSGRADO","SEGUNDA ESPECIALIDAD",91,"SALUD","RECONOCIDO POR LIC.","RECONOCIDO POR LIC."
"242","097","ASOCIACIÓN CIVIL UNIVERSIDAD DE CIENCIAS Y HUMANIDADES","PRIVADO","LICENCIA OTORGADA",6,"S","UCH-LIMA","LIMA","LIMA","SL01","LIMA","LIMA","LOS OLIVOS",-11.9615097,-77.0655921,"AUTORIZADO POR LIC.","ENFERMERÍA","PREGRADO","CARRERA PROFESIONAL",91,"SALUD","RECONOCIDO POR LIC.","RECONOCIDO POR LIC."
"243","019","UNIVERSIDAD DE SAN MARTÍN DE PORRES","PRIVADO","LICENCIA OTORGADA",6,"S","USMP-LIMA","LIMA","LIMA","SL04","LIMA","LIMA","LA MOLINA",-12.0976099,-76.9501312,"AUTORIZADO POR LIC.","INVESTIGACIÓN MÉDICA","POSGRADO","MAESTRÍA",91,"SALUD","RECONOCIDO POR LIC.","RECONOCIDO POR LIC."
"244","052A","UNIVERSIDAD CÉSAR VALLEJO S.A.C.","PRIVADO","LICENCIA OTORGADA",6,"S","UPCV-LA LIBERTAD","LA LIBERTAD","TRUJILLO","SL01","LA LIBERTAD","TRUJILLO","VICTOR LARCO HERRERA",-8.1293904,-79.0433213,"AUTORIZADO POR LIC.","SEGUNDA ESPECIALIDAD EN NEUROPSICOLOGÍA","POSGRADO","SEGUNDA ESPECIALIDAD",31,"CIENCIAS SOCIALES Y DEL COMPORTAMIENTO","RECONOCIDO POR LIC.","RECONOCIDO POR LIC."
"245","019","UNIVERSIDAD DE SAN MARTÍN DE PORRES","PRIVADO","LICENCIA OTORGADA",6,"S","USMP-LIMA","LIMA","LIMA","SL07","LIMA","LIMA","SAN ISIDRO",-12.0926846,-77.0375019,"AUTORIZADO POR LIC.","DERECHO","POSGRADO","DOCTORADO",42,"DERECHO","RECONOCIDO POR LIC.","RECONOCIDO POR LIC."
"246","055","UNIVERSIDAD PRIVADA DEL NORTE S.A.C.","PRIVADO","LICENCIA OTORGADA",6,"F02","UPN-LIMA","LIMA","LIMA","F02L01","LIMA","LIMA","LOS OLIVOS",-11.9646093,-77.0675632,"AUTORIZADO POR LIC.","MAESTRÍA EN DIRECCIÓN Y GESTIÓN DEL TALENTO HUMANO","POSGRADO","MAESTRÍA",41,"ADMINISTRACIÓN Y COMERCIO","RECONOCIDO POR LIC.","RECONOCIDO POR LIC."
"247","014","UNIVERSIDAD PERUANA CAYETANO HEREDIA","PRIVADO","LICENCIA OTORGADA",10,"S","UPCH-LIMA","LIMA","LIMA","SL02","LIMA","LIMA","LA MOLINA",-12.0695303,-76.9685595,"AUTORIZADO POR LIC.","GINECOLOGÍA Y OBSTETRICIA DE LA NIÑA Y ADOLESCENTE","POSGRADO","SEGUNDA ESPECIALIDAD",0,"NINGUNO","RECONOCIDO POR LIC.","RECONOCIDO POR LIC."
"248","032","UNIVERSIDAD NACIONAL JORGE BASADRE GROHMANN","PÚBLICO","LICENCIA OTORGADA",6,"S","UNJBG-TACNA","TACNA","TACNA","SL01","TACNA","TACNA","TACNA",-18.0251828,-70.2505031,"AUTORIZADO POR LIC.","GERENCIA EDUCATIVA","POSGRADO","SEGUNDA ESPECIALIDAD",19,"OTROS PROGRAMAS EN EDUCACIÓN","RECONOCIDO POR LIC.","RECONOCIDO POR LIC."
"249","034","UNIVERSIDAD NACIONAL DE SAN MARTÍN","PÚBLICO","LICENCIA OTORGADA",6,"F02","UNSM-SAN MARTÍN","SAN MARTÍN","RIOJA","F02L01","SAN MARTÍN","RIOJA","RIOJA",-6.063977832,-77.16731119,"AUTORIZADO POR LIC.","CONTABILIDAD","PREGRADO","CARRERA PROFESIONAL",41,"ADMINISTRACIÓN Y COMERCIO","RECONOCIDO POR LIC.","RECONOCIDO POR LIC."
"250","033","UNIVERSIDAD NACIONAL SANTIAGO ANTÚNEZ DE MAYOLO","PÚBLICO","LICENCIA OTORGADA",6,"S","UNSAM-ÁNCASH","ÁNCASH","HUARAZ","SL04","ÁNCASH","HUARAZ","HUARAZ",-9.537001434,-77.52841687,"AUTORIZADO POR LIC.","DOCTORADO EN OBSTETRICIA","POSGRADO","DOCTORADO",91,"SALUD","RECONOCIDO POR LIC.","RECONOCIDO POR LIC."
"251","005","UNIVERSIDAD NACIONAL DE SAN AGUSTÍN DE AREQUIPA","PÚBLICO","LICENCIA OTORGADA",10,"S","UNSA-AREQUIPA","AREQUIPA","AREQUIPA","SL02","AREQUIPA","AREQUIPA","AREQUIPA",-16.4086078,-71.5285764,"AUTORIZADO POR LIC.","MAESTRÍA EN CIENCIAS, CON MENCIÓN EN GERENCIA ESTRATÉGICA DE RECURSOS HUMANOS","POSGRADO","MAESTRÍA",0,"NINGUNO","RECONOCIDO POR LIC.","RECONOCIDO POR LIC."
"252","005","UNIVERSIDAD NACIONAL DE SAN AGUSTÍN DE AREQUIPA","PÚBLICO","LICENCIA OTORGADA",10,"S","UNSA-AREQUIPA","AREQUIPA","AREQUIPA","SL02","AREQUIPA","AREQUIPA","AREQUIPA",-16.4086078,-71.5285764,"AUTORIZADO POR LIC.","DOCTORADO EN CIENCIAS SOCIALES","POSGRADO","DOCTORADO",31,"CIENCIAS SOCIALES Y DEL COMPORTAMIENTO","RECONOCIDO POR LIC.","RECONOCIDO POR LIC."
"253","072","UNIVERSIDAD SEÑOR DE SIPÁN S.A.C.","PRIVADO","LICENCIA OTORGADA",6,"S","USS-LAMBAYEQUE","LAMBAYEQUE","CHICLAYO","SL02","LAMBAYEQUE","CHICLAYO","CHICLAYO",-6.7720491,-79.8368835,"AUTORIZADO POR LIC.","MAESTRÍA EN DERECHO NOTARIAL Y REGISTRAL","POSGRADO","MAESTRÍA",42,"DERECHO","RECONOCIDO POR LIC.","RECONOCIDO POR LIC."
"254","132","UNIVERSIDAD DE INGENIERÍA Y TECNOLOGÍA","PRIVADO","LICENCIA OTORGADA",6,"S","UTEC-LIMA","LIMA","LIMA","SL01","LIMA","LIMA","BARRANCO",-12.1351432,-77.0221491,"AUTORIZADO POR LIC.","MAESTRÍA EN INGENIERÍA ROBÓTICA","POSGRADO","MAESTRÍA",71,"INGENIERÍA Y PROFESIONES AFINES","RECONOCIDO POR LIC.","RECONOCIDO POR LIC."
"255","047","UNIVERSIDAD DE HUÁNUCO","PRIVADO","LICENCIA OTORGADA",6,"S","UH-HUÁNUCO","HUÁNUCO","HUÁNUCO","SL02","HUÁNUCO","HUÁNUCO","AMARILIS",-9.891863807,-76.21803254,"AUTORIZADO POR LIC.","TURISMO, HOTELERÍA Y GASTRONOMÍA","PREGRADO","CARRERA PROFESIONAL",1,"SERVICIOS PERSONALES","RECONOCIDO POR LIC.","RECONOCIDO POR LIC."
"256","014","UNIVERSIDAD PERUANA CAYETANO HEREDIA","PRIVADO","LICENCIA OTORGADA",10,"S","UPCH-LIMA","LIMA","LIMA","SL02","LIMA","LIMA","LA MOLINA",-12.0695303,-76.9685595,"AUTORIZADO POR LIC.","CARRERA PROFESIONAL DE FARMACIA Y BIOQUÍMICA","PREGRADO","CARRERA PROFESIONAL",91,"SALUD","RECONOCIDO POR LIC.","RECONOCIDO POR LIC."
"257","026","UNIVERSIDAD NACIONAL DANIEL ALCIDES CARRIÓN","PÚBLICO","LICENCIA OTORGADA",6,"S","UNDAC-PASCO","PASCO","PASCO","SL01","PASCO","PASCO","YANACANCHA",-10.6683864,-76.2527205,"AUTORIZADO POR LIC.","MAESTRÍA EN CIENCIAS DE LA ADMINISTRACIÓN, CON MENCIÓN EN GESTIÓN PÚBLICA Y DESARROLLO LOCAL","POSGRADO","MAESTRÍA",0,"NINGUNO","RECONOCIDO POR LIC.","RECONOCIDO POR LIC."
"258","076","UNIVERSIDAD NACIONAL TORIBIO RODRÍGUEZ DE MENDOZA DE AMAZONAS","PÚBLICO","LICENCIA OTORGADA",6,"S","UNTRMA-AMAZONAS","AMAZONAS","CHACHAPOYAS","SL01","AMAZONAS","CHACHAPOYAS","CHACHAPOYAS",-6.2335409,-77.8531651,"AUTORIZADO POR LIC.","ENFERMERÍA","PREGRADO","CARRERA PROFESIONAL",91,"SALUD","RECONOCIDO POR LIC.","RECONOCIDO POR LIC."
"259","008","PONTIFICIA UNIVERSIDAD CATÓLICA DEL PERÚ","PRIVADO","LICENCIA OTORGADA",10,"S","PUCP-LIMA","LIMA","LIMA","SL01","LIMA","LIMA","SAN MIGUEL",-12.0693438,-77.080122,"AUTORIZADO POR LIC.","DANZA","PREGRADO","CARRERA PROFESIONAL",21,"ARTE","RECONOCIDO POR LIC.","RECONOCIDO POR LIC."
"260","004","UNIVERSIDAD NACIONAL DE TRUJILLO","PÚBLICO","LICENCIA OTORGADA",8,"S","UNT-LA LIBERTAD","LA LIBERTAD","TRUJILLO","SL01","LA LIBERTAD","TRUJILLO","TRUJILLO",-8.1142716,-79.0383735,"AUTORIZADO POR LIC.","SEGUNDA ESPECIALIDAD EN CIRUGÍA GENERAL","POSGRADO","SEGUNDA ESPECIALIDAD",91,"SALUD","RECONOCIDO POR LIC.","RECONOCIDO POR LIC."
"261","068","UNIVERSIDAD CIENTÍFICA DEL SUR S.A.C.","PRIVADO","LICENCIA OTORGADA",6,"S","UCS-LIMA","LIMA","LIMA","SL04","LIMA","LIMA","MIRAFLORES",-12.1194134,-77.0261271,"AUTORIZADO POR LIC.","SEGUNDA ESPECIALIDAD EN ODONTOLOGÍA ESTÉTICA Y RESTAURADORA","POSGRADO","SEGUNDA ESPECIALIDAD",91,"SALUD","RECONOCIDO POR LIC.","RECONOCIDO POR LIC."
"262","006","UNIVERSIDAD NACIONAL DE INGENIERÍA","PÚBLICO","LICENCIA OTORGADA",10,"S","UNI-LIMA","LIMA","LIMA","SL01","LIMA","LIMA","RÍMAC",-12.0220074,-77.0493646,"AUTORIZADO POR LIC.","SEGUNDA ESPECIALIZACIÓN PROFESIONAL EN TELEMÁTICA","POSGRADO","SEGUNDA ESPECIALIDAD",71,"INGENIERÍA Y PROFESIONES AFINES","RECONOCIDO POR LIC.","RECONOCIDO POR LIC."
"263","017","UNIVERSIDAD DEL PACÍFICO","PRIVADO","LICENCIA OTORGADA",8,"S","UP-LIMA","LIMA","LIMA","SL01","LIMA","LIMA","JESÚS MARÍA",-12.083788,-77.0482368,"AUTORIZADO POR LIC.","MAESTRÍA EN GESTIÓN DE PORTAFOLIOS DE INVERSIÓN","POSGRADO","MAESTRÍA",41,"ADMINISTRACIÓN Y COMERCIO","RECONOCIDO POR LIC.","RECONOCIDO POR LIC."
"264","054","UNIVERSIDAD PERUANA DE CIENCIAS APLICADAS S.A.C.","PRIVADO","LICENCIA OTORGADA",6,"S","UPC-LIMA","LIMA","LIMA","SL01","LIMA","LIMA","SANTIAGO DE SURCO",-12.104061,-76.962902,"AUTORIZADO POR LIC.","TRADUCCIÓN E INTERPRETACIÓN PROFESIONAL","PREGRADO","CARRERA PROFESIONAL",0,"NINGUNO","RECONOCIDO POR LIC.","RECONOCIDO POR LIC."
"265","003","UNIVERSIDAD NACIONAL DE SAN ANTONIO ABAD DEL CUSCO","PÚBLICO","LICENCIA OTORGADA",8,"S","UNSAAC-CUSCO","CUSCO","CUSCO","SL01","CUSCO","CUSCO","CUSCO",-13.52193,-71.9583208,"AUTORIZADO POR LIC.","INGENIERÍA GEOLÓGICA","PREGRADO","CARRERA PROFESIONAL",53,"CIENCIAS FÍSICAS Y QUÍMICAS","RECONOCIDO POR LIC.","RECONOCIDO POR LIC."
"266","046","UNIVERSIDAD PRIVADA ANTENOR ORREGO","PRIVADO","LICENCIA OTORGADA",6,"S","UPAO-LA LIBERTAD","LA LIBERTAD","TRUJILLO","SL01","LA LIBERTAD","TRUJILLO","TRUJILLO",-8.1270487,-79.0314756,"AUTORIZADO POR LIC.","MAESTRÍA EN CIENCIAS AGRARIAS","POSGRADO","MAESTRÍA",0,"NINGUNO","RECONOCIDO POR LIC.","RECONOCIDO POR LIC."
"267","054","UNIVERSIDAD PERUANA DE CIENCIAS APLICADAS S.A.C.","PRIVADO","LICENCIA OTORGADA",6,"S","UPC-LIMA","LIMA","LIMA","SL05","LIMA","LIMA","SAN ISIDRO",-12.0868407,-77.0499283,"AUTORIZADO POR LIC.","EDUCACIÓN Y GESTIÓN DEL APRENDIZAJE","PREGRADO","CARRERA PROFESIONAL",19,"OTROS PROGRAMAS EN EDUCACIÓN","RECONOCIDO POR LIC.","RECONOCIDO POR LIC."
"268","052A","UNIVERSIDAD CÉSAR VALLEJO S.A.C.","PRIVADO","LICENCIA OTORGADA",6,"F05","UPCV-LIMA","LIMA","LIMA","F05L01","LIMA","LIMA","LOS OLIVOS",-11.9552328,-77.0685585,"AUTORIZADO POR LIC.","MAESTRÍA EN DIDÁCTICA EN IDIOMAS EXTRANJEROS","POSGRADO","MAESTRÍA",19,"OTROS PROGRAMAS EN EDUCACIÓN","RECONOCIDO POR LIC.","RECONOCIDO POR LIC."
"269","055","UNIVERSIDAD PRIVADA DEL NORTE S.A.C.","PRIVADO","LICENCIA OTORGADA",6,"F02","UPN-LIMA","LIMA","LIMA","F02L04","LIMA","LIMA","SAN JUAN DE LURIGANCHO",-11.9841504,-77.0024242,"AUTORIZADO POR LIC.","ADMINISTRACIÓN BANCARIA Y FINANCIERA","PREGRADO","CARRERA PROFESIONAL",41,"ADMINISTRACIÓN Y COMERCIO","RECONOCIDO POR LIC.","RECONOCIDO POR LIC."
"270","023","UNIVERSIDAD NACIONAL HERMILIO VALDIZÁN DE HUÁNUCO","PÚBLICO","LICENCIA OTORGADA",6,"S","UNHV-HUÁNUCO","HUÁNUCO","HUÁNUCO","SL01","HUÁNUCO","HUÁNUCO","PILLCO MARCA",-9.9496157,-76.2501276,"AUTORIZADO POR LIC.","FILOSOFÍA, PSICOLOGÍA Y CIENCIAS SOCIALES","PREGRADO","CARRERA PROFESIONAL",22,"HUMANIDADES","RECONOCIDO POR LIC.","RECONOCIDO POR LIC."
"271","030","UNIVERSIDAD RICARDO PALMA","PRIVADO","LICENCIA OTORGADA",6,"S01","URP-LIMA","LIMA","LIMA","S01L01","LIMA","LIMA","SANTIAGO DE SURCO",-12.1318458,-76.9796463,"AUTORIZADO POR LIC.","MAESTRÍA EN DOCENCIA SUPERIOR","POSGRADO","MAESTRÍA",13,"EDUCACIÓN SUPERIOR Y TECNOLÓGICA","RECONOCIDO POR LIC.","RECONOCIDO POR LIC."
"272","052A","UNIVERSIDAD CÉSAR VALLEJO S.A.C.","PRIVADO","LICENCIA OTORGADA",6,"F05","UPCV-LIMA","LIMA","LIMA","F05L01","LIMA","LIMA","LOS OLIVOS",-11.9552328,-77.0685585,"AUTORIZADO POR LIC.","MAESTRÍA EN ADMINISTRACIÓN DE NEGOCIOS - MBA","POSGRADO","MAESTRÍA",41,"ADMINISTRACIÓN Y COMERCIO","RECONOCIDO POR LIC.","RECONOCIDO POR LIC."
"273","003","UNIVERSIDAD NACIONAL DE SAN ANTONIO ABAD DEL CUSCO","PÚBLICO","LICENCIA OTORGADA",8,"S","UNSAAC-CUSCO","CUSCO","CUSCO","SL01","CUSCO","CUSCO","CUSCO",-13.52193,-71.9583208,"AUTORIZADO POR LIC.","MAESTRÍA EN ECONOMÍA MENCIÓN ECONOMÍA Y FINANZAS DE LA EMPRESA","POSGRADO","MAESTRÍA",0,"NINGUNO","RECONOCIDO POR LIC.","RECONOCIDO POR LIC."
"274","074A","ASOCIACIÓN CIVIL UNIVERSIDAD CATÓLICA DE TRUJILLO BENEDICTO XVI","PRIVADO","LICENCIA OTORGADA",6,"S","UCT-LA LIBERTAD","LA LIBERTAD","TRUJILLO","SL01","LA LIBERTAD","TRUJILLO","MOCHE",-8.1602468,-79.0111745,"AUTORIZADO POR LIC.","INGENIERÍA INDUSTRIAL","PREGRADO","CARRERA PROFESIONAL",72,"INDUSTRIA Y PRODUCCIÓN","RECONOCIDO POR LIC.","RECONOCIDO POR LIC."
"275","065","UNIVERSIDAD TECNOLÓGICA DEL PERÚ S.A.C.","PRIVADO","LICENCIA OTORGADA",6,"F04","UTP-ÁNCASH","ÁNCASH","SANTA","F04L01","ÁNCASH","SANTA","NUEVO CHIMBOTE",-9.1306736,-78.5391105,"AUTORIZADO POR LIC.","CONTABILIDAD","PREGRADO","CARRERA PROFESIONAL",41,"ADMINISTRACIÓN Y COMERCIO","RECONOCIDO POR LIC.","RECONOCIDO POR LIC."
"276","004","UNIVERSIDAD NACIONAL DE TRUJILLO","PÚBLICO","LICENCIA OTORGADA",8,"S","UNT-LA LIBERTAD","LA LIBERTAD","TRUJILLO","SL01","LA LIBERTAD","TRUJILLO","TRUJILLO",-8.1142716,-79.0383735,"AUTORIZADO POR LIC.","INGENIERÍA MECATRÓNICA","PREGRADO","CARRERA PROFESIONAL",71,"INGENIERÍA Y PROFESIONES AFINES","RECONOCIDO POR LIC.","RECONOCIDO POR LIC."
"277","057","UNIVERSIDAD SAN IGNACIO DE LOYOLA S.A.","PRIVADO","LICENCIA OTORGADA",6,"S","USIL-LIMA","LIMA","LIMA","SL01","LIMA","LIMA","LA MOLINA",-12.072888,-76.9516609,"AUTORIZADO POR LIC.","ADMINISTRACIÓN","PREGRADO","CARRERA PROFESIONAL",41,"ADMINISTRACIÓN Y COMERCIO","RECONOCIDO POR LIC.","RECONOCIDO POR LIC."
"278","004","UNIVERSIDAD NACIONAL DE TRUJILLO","PÚBLICO","LICENCIA OTORGADA",8,"F01","UNT-LA LIBERTAD","LA LIBERTAD","PACASMAYO","F01L01","LA LIBERTAD","PACASMAYO","GUADALUPE",-7.2452522,-79.4760133,"AUTORIZADO POR LIC.","TRABAJO SOCIAL","PREGRADO","CARRERA PROFESIONAL",92,"BIENESTAR","RECONOCIDO POR LIC.","RECONOCIDO POR LIC."
"279","008","PONTIFICIA UNIVERSIDAD CATÓLICA DEL PERÚ","PRIVADO","LICENCIA OTORGADA",10,"S","PUCP-LIMA","LIMA","LIMA","SL01","LIMA","LIMA","SAN MIGUEL",-12.0693438,-77.080122,"AUTORIZADO POR LIC.","DERECHO CON MENCIÓN EN POLÍTICA JURISDICCIONAL ESPECIALIDAD EN GESTIÓN Y POLÍTICA JUDICIAL","POSGRADO","MAESTRÍA",42,"DERECHO","RECONOCIDO POR LIC.","RECONOCIDO POR LIC."
"280","055","UNIVERSIDAD PRIVADA DEL NORTE S.A.C.","PRIVADO","LICENCIA OTORGADA",6,"F01","UPN-CAJAMARCA","CAJAMARCA","CAJAMARCA","F01L01","CAJAMARCA","CAJAMARCA","CAJAMARCA",-7.150645,-78.506058,"AUTORIZADO POR LIC.","MAESTRÍA EJECUTIVA EN ADMINISTRACIÓN DE EMPRESAS","POSGRADO","MAESTRÍA",41,"ADMINISTRACIÓN Y COMERCIO","RECONOCIDO POR LIC.","RECONOCIDO POR LIC."
"281","006","UNIVERSIDAD NACIONAL DE INGENIERÍA","PÚBLICO","LICENCIA OTORGADA",10,"S","UNI-LIMA","LIMA","LIMA","SL01","LIMA","LIMA","RÍMAC",-12.0220074,-77.0493646,"AUTORIZADO POR LIC.","DOCTORADO EN CIENCIAS E INGENIERÍA AMBIENTALES CON MENCIÓN EN DESARROLLO SOSTENIBLE","POSGRADO","DOCTORADO",0,"NINGUNO","RECONOCIDO POR LIC.","RECONOCIDO POR LIC."
"282","006","UNIVERSIDAD NACIONAL DE INGENIERÍA","PÚBLICO","LICENCIA OTORGADA",10,"S","UNI-LIMA","LIMA","LIMA","SL01","LIMA","LIMA","RÍMAC",-12.0220074,-77.0493646,"AUTORIZADO POR LIC.","DOCTORADO EN CIENCIAS CON MENCIÓN EN FÍSICA","POSGRADO","DOCTORADO",53,"CIENCIAS FÍSICAS Y QUÍMICAS","RECONOCIDO POR LIC.","RECONOCIDO POR LIC."
"283","019","UNIVERSIDAD DE SAN MARTÍN DE PORRES","PRIVADO","LICENCIA OTORGADA",6,"S","USMP-LIMA","LIMA","LIMA","SL01","LIMA","LIMA","SANTA ANITA",-12.045948,-76.9681914,"AUTORIZADO POR LIC.","ECONOMÍA","PREGRADO","CARRERA PROFESIONAL",31,"CIENCIAS SOCIALES Y DEL COMPORTAMIENTO","RECONOCIDO POR LIC.","RECONOCIDO POR LIC."
"284","030","UNIVERSIDAD RICARDO PALMA","PRIVADO","LICENCIA OTORGADA",6,"S01","URP-LIMA","LIMA","LIMA","S01L01","LIMA","LIMA","SANTIAGO DE SURCO",-12.1318458,-76.9796463,"AUTORIZADO POR LIC.","ESPECIALIDAD: ADMINISTRACIÓN Y GESTIÓN EN SALUD","POSGRADO","SEGUNDA ESPECIALIDAD",41,"ADMINISTRACIÓN Y COMERCIO","RECONOCIDO POR LIC.","RECONOCIDO POR LIC."
"285","052A","UNIVERSIDAD CÉSAR VALLEJO S.A.C.","PRIVADO","LICENCIA OTORGADA",6,"F05","UPCV-LIMA","LIMA","LIMA","F05L02","LIMA","LIMA","SAN JUAN DE LURIGANCHO",-11.9814929,-77.0001665,"AUTORIZADO POR LIC.","MAESTRÍA EN GESTIÓN DE LOS SERVICIOS DE LA SALUD","POSGRADO","MAESTRÍA",41,"ADMINISTRACIÓN Y COMERCIO","RECONOCIDO POR LIC.","RECONOCIDO POR LIC."
"286","071","UNIVERSIDAD CATÓLICA SEDES SAPIENTIAE","PRIVADO","LICENCIA OTORGADA",6,"S","UCSS-LIMA","LIMA","LIMA","SL01","LIMA","LIMA","LOS OLIVOS",-12.0001412,-77.0639086,"AUTORIZADO POR LIC.","PSICOLOGÍA","PREGRADO","CARRERA PROFESIONAL",31,"CIENCIAS SOCIALES Y DEL COMPORTAMIENTO","RECONOCIDO POR LIC.","RECONOCIDO POR LIC."
"287","035","UNIVERSIDAD NACIONAL DE UCAYALI","PÚBLICO","LICENCIA OTORGADA",6,"S","UNU-UCAYALI","UCAYALI","CORONEL PORTILLO","SL01","UCAYALI","CORONEL PORTILLO","CALLERIA",-8.3948987,-74.5776093,"AUTORIZADO POR LIC.","PROGRAMA DE SEGUNDA ESPECIALIZACIÓN EN TECNOLOGÍA EDUCATIVA, CON MENCIÓN EN: CURRÍCULO Y ENSEÑANZA - APRENDIZAJE","POSGRADO","SEGUNDA ESPECIALIDAD",0,"NINGUNO","RECONOCIDO POR LIC.","RECONOCIDO POR LIC."
"288","014","UNIVERSIDAD PERUANA CAYETANO HEREDIA","PRIVADO","LICENCIA OTORGADA",10,"S","UPCH-LIMA","LIMA","LIMA","SL04","LIMA","LIMA","MIRAFLORES",-12.13402606,-77.02627908,"AUTORIZADO POR LIC.","PROGRAMA DE SEGUNDA ESPECIALIDAD PROFESIONAL EN NEUROCIRUGÍA","POSGRADO","SEGUNDA ESPECIALIDAD",91,"SALUD","RECONOCIDO POR LIC.","RECONOCIDO POR LIC."
"289","052A","UNIVERSIDAD CÉSAR VALLEJO S.A.C.","PRIVADO","LICENCIA OTORGADA",6,"S","UPCV-LA LIBERTAD","LA LIBERTAD","TRUJILLO","SL01","LA LIBERTAD","TRUJILLO","VICTOR LARCO HERRERA",-8.1293904,-79.0433213,"AUTORIZADO POR LIC.","MAESTRÍA EN GERENCIA DE OPERACIONES Y LOGÍSTICA","POSGRADO","MAESTRÍA",72,"INDUSTRIA Y PRODUCCIÓN","RECONOCIDO POR LIC.","RECONOCIDO POR LIC."
